city,country,latitude,longitude,property_name,property_type,site_review_rating,state,traveller_rating,,,,,,,,,,,,,,,,,,,
Udaipur,India,24.581788,73.667805,Zion Home Stay,Hotel,4.5,,,,,,,,,,,,,,,,,,,,,
Udaipur,India,24.544342,73.644242,Araliayas Resorts,Hotel,4.5,,,,,,,,,,,,,,,,,,,,,
Udaipur,India,24.579942,73.681953,Shri Udai Palace,Hotel,,,,,,,,,,,,,,,,,,,,,,
Udaipur,India,24.622607,73.855194,SNP House Airport Hotel And Restaurant,Hotel,,,,,,,,,,,,,,,,,,,,,,
Udaipur,India,24.5801,73.6822,Hotel Pichola Haveli (LAKE SIDE),Hotel,3.7,,,,,,,,,,,,,,,,,,,,,
Udaipur,India,24.575779,73.694363,Garden Hotel,Hotel,4.1,,,,,,,,,,,,,,,,,,,,,
Udaipur,India,24.567592,73.677763,Jagmandir Island Palace,Hotel,,,,,,,,,,,,,,,,,,,,,,
Udaipur,India,24.5452,73.6784,Shikarbadi Heritage,Hotel,3.9,,,,,,,,,,,,,,,,,,,,,
Udaipur,India,24.574291,73.684014,Shiv Niwas Palace,Hotel,4.8,,,,,,,,,,,,,,,,,,,,,
Udaipur,India,24.599427,73.69001,Hotel The Archi,Hotel,4.7,,,,,,,,,,,,,,,,,,,,,
Udaipur,India,24.615796,73.707245,Everest Resort,Hotel,,,,,,,,,,,,,,,,,,,,,,
Udaipur,India,24.57687,73.694619,Hotel Mukund Villas,Hotel,4.8,,,,,,,,,,,,,,,,,,,,,
Udaipur,India,24.5769,73.6995,Hotel Paras,Hotel,2,,,,,,,,,,,,,,,,,,,,,
Udaipur,India,24.573297,73.699672,Hotel Jagat Villa,Hotel,4.5,,,,,,,,,,,,,,,,,,,,,
Udaipur,India,24.577341,73.700399,Shree Narayana,Hotel,4,,,,,,,,,,,,,,,,,,,,,
Udaipur,India,24.5773,73.7014,Hotel Sunder,Hotel,,,,,,,,,,,,,,,,,,,,,,
Udaipur,India,24.583848,73.651997,Blue Mountain Hotel,Hotel,,,,,,,,,,,,,,,,,,,,,,
Udaipur,India,24.576239,73.696768,Hotel Shalimar Palace,Hotel,4.2,,,,,,,,,,,,,,,,,,,,,
Udaipur,India,24.609454,73.660771,Amantra Shilpi Resort,Hotel,4.5,,,,,,,,,,,,,,,,,,,,,
Udaipur,India,24.591,73.6805,Hotel Kalika Palace,Hotel,,,,,,,,,,,,,,,,,,,,,,
Udaipur,India,24.5931,73.7098,The Royal Inn,Hotel,,,,,,,,,,,,,,,,,,,,,,
Udaipur,India,24.504458,73.657987,The Amargarh Resort,Hotel,,,,,,,,,,,,,,,,,,,,,,
Udaipur,India,24.578484,73.684716,Janak Niwas Guest House,Hotel,3.9,,,,,,,,,,,,,,,,,,,,,
Udaipur,India,24.585837,73.649029,Adarsh Resort Udaipur,Hotel,,,,,,,,,,,,,,,,,,,,,,
Udaipur,India,24.5683,73.6991,Le Roi Udaipur,Hotel,4.5,,,,,,,,,,,,,,,,,,,,,
Udaipur,India,24.581349,73.682387,Udai Haveli Guest House,Hotel,4.9,,,,,,,,,,,,,,,,,,,,,
Jaisalmer,India,26.913377,70.918887,Hotel Suman Palace,Hotel,,Rajashthan,,,,,,,,,,,,,,,,,,,,
Neemrana,India,0,0,RAJ MAHAL RESORT,Hotel,,,,,,,,,,,,,,,,,,,,,,
Manali,India,32.245327,77.18922,New Adarsh Annexe,Hotel,,Himachal Pradesh,,,,,,,,,,,,,,,,,,,,
Hyderabad,India,17.438037,78.389837,Luxor Park,Hotel,,,Location:5.0/5 | Hospitality:5.0/5 | Facilities:5.0/5 | Cleanliness:5.0/5 | Value for Money:5.0/5 | Food:5.0/5,,,,,,,,,,,,,,,,,,,
Jaisalmer,India,26.8972,70.5993,Hotel Ajanta Haveli,Hotel,,Rajasthan,,,,,,,,,,,,,,,,,,,,
Mussoorie,India,30.454533,78.081074,Hotel PikNik,Hotel,,Uttrakhand,Location:2.5/5 | Hospitality:2.5/5 | Facilities:5.0/5 | Cleanliness:5.0/5 | Value for Money:2.5/5 | Food:2.5/5,,,,,,,,,,,,,,,,,,,
Munnar,India,0,0,The Kensar Homestay,Homestay,,Kerala,,,,,,,,,,,,,,,,,,,,
Gandhinagar,India,23.23116,72.649365,Hotel Vasundhra,Hotel,,Gujarat,,,,,,,,,,,,,,,,,,,,
Nahan,India,30.438177,77.577047,Hotel Grand Riviera,Hotel,,,,,,,,,,,,,,,,,,,,,,
Jammu,India,32.596574,74.959716,Hotel 17 Miles,Hotel,,Jammu and Kashmir,Location:4.2/5 | Hospitality:4.3/5 | Facilities:4.2/5 | Cleanliness:4.4/5 | Value for Money:4.3/5 | Food:2.9/5,,,,,,,,,,,,,,,,,,,
Katra,India,32.988833,74.928142,Pratap Resort,Hotel,,jammu,,,,,,,,,,,,,,,,,,,,
Palakkad,India,10.769421,76.656247,Sayoojyam Residency,Hotel,,Kerala,Location:4.6/5 | Hospitality:4.3/5 | Facilities:4.2/5 | Cleanliness:4.3/5 | Value for Money:4.3/5 | Food:1.9/5,,,,,,,,,,,,,,,,,,,
Nagpur,India,21.151397,79.098131,Hotel Woodlands,Hotel,,Maharashtra,Location:3.8/5 | Hospitality:2.7/5 | Facilities:2.9/5 | Cleanliness:3.0/5 | Value for Money:2.8/5 | Food:2.0/5,,,,,,,,,,,,,,,,,,,
Mussoorie,India,0,0,Hotel Castle View,Hotel,,Uttarakhand,,,,,,,,,,,,,,,,,,,,
Manali,India,32.248894,77.185981,Snow Line,Hotel,,Himachal Pradesh,Location:4.6/5 | Hospitality:4.6/5 | Facilities:4.4/5 | Cleanliness:4.2/5 | Value for Money:4.5/5 | Food:1.4/5,,,,,,,,,,,,,,,,,,,
Gandhinagar,India,23.230765,72.646536,Hotel Neelkamal,Hotel,,Gujarat,,,,,,,,,,,,,,,,,,,,
Munnar,India,10.042304,77.178551,Holiday Heaven,Hotel,,Kerala,Location:4.2/5 | Hospitality:4.1/5 | Facilities:3.8/5 | Cleanliness:3.9/5 | Value for Money:4.0/5 | Food:3.7/5,,,,,,,,,,,,,,,,,,,
Kolkata,India,22.533848,88.353182,The Samilton,Hotel,,West Bengal,Location:4.1/5 | Hospitality:3.9/5 | Facilities:3.5/5 | Cleanliness:3.7/5 | Value for Money:3.5/5 | Food:2.9/5,,,,,,,,,,,,,,,,,,,
Mysore,India,12.421516,76.681695,Amblee Holiday Resort,Hotel,,,Location:4.3/5 | Hospitality:3.2/5 | Facilities:3.0/5 | Cleanliness:2.9/5 | Value for Money:3.2/5 | Food:3.2/5,,,,,,,,,,,,,,,,,,,
Munnar,India,9.989989,77.06995,The Aruvi Resort,Hotel,,kerala,Location:4.6/5 | Hospitality:4.5/5 | Facilities:4.4/5 | Cleanliness:4.2/5 | Value for Money:4.5/5 | Food:4.2/5,,,,,,,,,,,,,,,,,,,
Munnar,India,10.03104,77.047384,Winter Casa Resort,Hotel,,,,,,,,,,,,,,,,,,,,,,
Patnitop,India,0,0,Hotel Dogra Residency,Hotel,,Jammu And Kashmir,,,,,,,,,,,,,,,,,,,,
Nasik,India,20.008587,73.794296,Singhania Guest House,Hotel,,maharashtra,,,,,,,,,,,,,,,,,,,,
Kasol,India,32.009549,77.316763,Hotel Krishna Palace,Hotel,,Himachal Pradesh,Location:3.0/5 | Hospitality:2.7/5 | Facilities:2.3/5 | Cleanliness:2.7/5 | Value for Money:2.7/5 | Food:2.7/5,,,,,,,,,,,,,,,,,,,
Bhatinda,India,0,0,DI Residency,Hotel,,Punjab,,,,,,,,,,,,,,,,,,,,
Itanagar,India,0,0,Hotel Kameng,Hotel,,arunachal pradesh,,,,,,,,,,,,,,,,,,,,
Nasik,India,0,0,Hotel Shree Leela International Manmad,Hotel,,Maharashtra,,,,,,,,,,,,,,,,,,,,
Nainital,India,29.398018,79.444534,Alpine Club,Hotel,,Uttaranchal,Location:2.8/5 | Hospitality:2.2/5 | Facilities:3.0/5 | Cleanliness:3.2/5 | Value for Money:2.8/5 | Food:0.8/5,,,,,,,,,,,,,,,,,,,
Orchha,India,25.351837,78.636118,Hotel Sunset,Hotel,,Madhya Pradesh,Location:4.9/5 | Hospitality:4.8/5 | Facilities:4.8/5 | Cleanliness:4.2/5 | Value for Money:4.8/5 | Food:1.7/5,,,,,,,,,,,,,,,,,,,
Junagarh,India,21.523497,70.455288,Hotel Vishala,Hotel,,Gujarat,,,,,,,,,,,,,,,,,,,,
Kovalam and Poovar,India,8.38637,76.978122,Hotel Pappukutty Beach Resort,Hotel,,Kerala,Location:4.6/5 | Hospitality:3.2/5 | Facilities:3.2/5 | Cleanliness:3.2/5 | Value for Money:3.3/5 | Food:2.9/5,,,,,,,,,,,,,,,,,,,
Munnar,India,10.021297,77.054798,Broad Bean resort &spa,Hotel,,kerala,Location:5.0/5 | Hospitality:5.0/5 | Facilities:4.0/5 | Cleanliness:4.0/5 | Value for Money:5.0/5 | Food:0.0/5,,,,,,,,,,,,,,,,,,,
Nasik,India,19.9469,73.7654,Feel Like Home,Hotel,,Maharashtra,,,,,,,,,,,,,,,,,,,,
Mysore,India,12.309186,76.662407,Hotel Sandesh The Prince,Hotel,,Karnataka,Location:4.8/5 | Hospitality:4.6/5 | Facilities:4.5/5 | Cleanliness:4.4/5 | Value for Money:4.5/5 | Food:2.1/5,,,,,,,,,,,,,,,,,,,
Hyderabad,India,17.433,78.3681,alcove service apartments jubilee hills,Hotel,,telangana,,,,,,,,,,,,,,,,,,,,
Jabalpur,India,23.1553,79.9257,Hotel Gulzar Towers,Hotel,,Madhya Pradesh,,,,,,,,,,,,,,,,,,,,
Junagarh,India,0,0,Murlidhar Guest House,Hotel,,Junagadh,,,,,,,,,,,,,,,,,,,,
Junagarh,India,0,0,Hotel Shree Krishna and Janta Lodge,Hotel,,Gujarat,,,,,,,,,,,,,,,,,,,,
Kodaikanal,India,0,0,Cubix Cottage,Hotel,,tamil nadu,,,,,,,,,,,,,,,,,,,,
Kolkata,India,22.622087,88.445603,Pipal Tree Hotel,Hotel,,West Bengal,Location:4.6/5 | Hospitality:4.0/5 | Facilities:4.2/5 | Cleanliness:3.7/5 | Value for Money:4.0/5 | Food:2.8/5,,,,,,,,,,,,,,,,,,,
Kanyakumari,India,8.083317,77.549958,HOTEL TEMPLE CITI,Hotel,,Tamil Nadu,Location:0.0/5 | Hospitality:0.0/5 | Facilities:4.8/5 | Cleanliness:4.8/5 | Value for Money:0.0/5 | Food:0.0/5,,,,,,,,,,,,,,,,,,,
Munnar,India,10.073772,77.064231,Archana Residency,Hotel,,kerala,Location:3.9/5 | Hospitality:4.8/5 | Facilities:3.8/5 | Cleanliness:4.1/5 | Value for Money:4.0/5 | Food:4.2/5,,,,,,,,,,,,,,,,,,,
Jamshedpur,India,22.8629259,86.205174,Hotel Golden Leaf Resort,Hotel,,Jharkhand,,,,,,,,,,,,,,,,,,,,
Murudeshwar,India,14.812762,74.13095,Sea View Beach Resort,Hotel,,,Location:2.7/5 | Hospitality:2.3/5 | Facilities:2.0/5 | Cleanliness:2.0/5 | Value for Money:2.3/5 | Food:2.0/5,,,,,,,,,,,,,,,,,,,
Muvattupuzha,India,0,0,Sheela Inn,Hotel,,,,,,,,,,,,,,,,,,,,,,
Nathdwara,India,0,0,Hotel Sudarshan,Hotel,,Rajasthan,Location:4.3/5 | Hospitality:3.5/5 | Facilities:3.3/5 | Cleanliness:4.3/5 | Value for Money:3.0/5 | Food:0.0/5,,,,,,,,,,,,,,,,,,,
Nathdwara,India,24.941213,73.823705,Hotel Gokuldham,Hotel,,Rajasthan,,,,,,,,,,,,,,,,,,,,
Mandawa,India,28.053947,75.148114,Hotel Radhika Haveli Mandawa,Hotel,,Rajasthan,Location:4.2/5 | Hospitality:4.2/5 | Facilities:4.2/5 | Cleanliness:4.2/5 | Value for Money:4.2/5 | Food:4.2/5,,,,,,,,,,,,,,,,,,,
Daman,India,20.438246,72.83072,Devka Beach Homestay,Hotel,,daman,,,,,,,,,,,,,,,,,,,,
Hyderabad,India,17.425058,78.425487,Falcons Nest- Banjara Hills,Hotel,,Andhra Pradesh,Location:3.7/5 | Hospitality:3.9/5 | Facilities:3.4/5 | Cleanliness:3.5/5 | Value for Money:3.9/5 | Food:3.2/5,,,,,,,,,,,,,,,,,,,
Najibabad,India,0,0,Hotel Rajan,Hotel,,UP,,,,,,,,,,,,,,,,,,,,
Munnar,India,10.000891,77.06109,Season7 The Nature Resort,Hotel,,kerala,Location:4.8/5 | Hospitality:5.0/5 | Facilities:5.0/5 | Cleanliness:4.0/5 | Value for Money:5.0/5 | Food:3.2/5,,,,,,,,,,,,,,,,,,,
Shimoga,India,0,0,Rainbow Hospitality Holiday Home NH 13,Hotel,,,,,,,,,,,,,,,,,,,,,,
Dharamshala,India,32.229457,76.327405,Pride Surya Mountain Resort,Hotel,,,Location:4.5/5 | Hospitality:3.6/5 | Facilities:3.4/5 | Cleanliness:3.9/5 | Value for Money:3.6/5 | Food:3.4/5,,,,,,,,,,,,,,,,,,,
Samode,India,0,0,Raj Haveli,Hotel,,,,,,,,,,,,,,,,,,,,,,
Udaipur,India,24.57127,73.691544,Hotel Panorma Guest House,Hotel,,,Location:4.8/5 | Hospitality:4.5/5 | Facilities:4/5 | Cleanliness:4.2/5 | Value for Money:4.5/5 | Food:4.2/5,,,,,,,,,,,,,,,,,,,
Muvattupuzha,India,0,0,Zeneith homestay,Hotel,,,,,,,,,,,,,,,,,,,,,,
Chikmagalur,India,13.314376,75.770816,Travelers Bungalow Homestay,Hotel,,,,,,,,,,,,,,,,,,,,,,
Udaipur,India,24.560496,73.654664,Mountain Ridge,Hotel,,,,,,,,,,,,,,,,,,,,,,
Silchar,India,24.826,92.797,Hotel Borail View,Hotel,,,Location:4.5/5 | Hospitality:4/5 | Facilities:4/5 | Cleanliness:4/5 | Value for Money:4/5 | Food:4/5,,,,,,,,,,,,,,,,,,,
Varanasi,India,25.307481,83.004387,Subh Laxmi PAying Guest House,Hotel,,,,,,,,,,,,,,,,,,,,,,
Dapoli,India,17.780258,73.114559,Lotus Beach Resort-Murud Harnai,Hotel,,,Location:4.7/5 | Hospitality:4.6/5 | Facilities:4.3/5 | Cleanliness:4.6/5 | Value for Money:4.5/5 | Food:4/5,,,,,,,,,,,,,,,,,,,
Guwahati,India,26.115956,91.79831,HOTEL RUDRAKSH INN,Hotel,,,,,,,,,,,,,,,,,,,,,,
Dharamshala,India,32.244113,76.332866,Hotel Bhagsu View,Hotel,,,Location:5/5 | Hospitality:5/5 | Facilities:4/5 | Cleanliness:5/5 | Value for Money:5/5 | Food:5/5,,,,,,,,,,,,,,,,,,,
Nainital,India,29.42301,79.427487,The Hidden Valley Camps and Resorts,Hotel,,,,,,,,,,,,,,,,,,,,,,
Indore,India,0,0,Meraki Inn,Hotel,,,,,,,,,,,,,,,,,,,,,,
DEOGHAR,India,0,0,KAMLA HOTEL,Hotel,,,,,,,,,,,,,,,,,,,,,,
Palampur,India,32.2509,77.1845,Hotel Holiday Home,Hotel,,,,,,,,,,,,,,,,,,,,,,
Chikmagalur,India,13.268812,75.719553,Tex Woods Resort,Hotel,,,,,,,,,,,,,,,,,,,,,,
MountAbu,India,24.589501,72.713886,Hotel Golden Veena,Hotel,,,,,,,,,,,,,,,,,,,,,,
MountAbu,India,24.5925,72.715556,Couples Paradise Hotel,Hotel,,,,,,,,,,,,,,,,,,,,,,
Pithoragarh,India,29.584397,80.218383,Baakhlee,Hotel,,,,,,,,,,,,,,,,,,,,,,
Varanasi,India,25.302,83.0075,Leela Guest House,Hotel,,,,,,,,,,,,,,,,,,,,,,
Tirupati,India,13.6294,79.4376,Best Western Tirupati,Hotel,,,Location:4.5/5 | Hospitality:4.6/5 | Facilities:4.5/5 | Cleanliness:4.8/5 | Value for Money:4.6/5 | Food:4.4/5,,,,,,,,,,,,,,,,,,,
Lachung,India,0,0,Kongchen Tashi Yangkhel,Hotel,,,,,,,,,,,,,,,,,,,,,,
Satna,India,24.573918,80.839918,Hotel Savera,Hotel,,,Location:4/5 | Hospitality:5/5 | Facilities:5/5 | Cleanliness:5/5 | Value for Money:5/5 | Food:5/5,,,,,,,,,,,,,,,,,,,
Shimoga,India,13.92969,75.570971,Royal Orchid Central,Hotel,,,Location:4.6/5 | Hospitality:4.4/5 | Facilities:4.3/5 | Cleanliness:4.5/5 | Value for Money:4.4/5 | Food:3.9/5,,,,,,,,,,,,,,,,,,,
Guwahati,India,26.18128,91.741128,Hotel City Park,Hotel,,,Location:4.2/5 | Hospitality:4.3/5 | Facilities:3.9/5 | Cleanliness:4/5 | Value for Money:4.2/5 | Food:3.6/5,,,,,,,,,,,,,,,,,,,
Dharamshala,India,32.221584,76.315655,Ravine Hotel,Hotel,,,,,,,,,,,,,,,,,,,,,,
Chikmagalur,India,12.982809,77.655044,Prakruthi Homestay,Hotel,,,,,,,,,,,,,,,,,,,,,,
Gwalior,India,26.209875,78.187278,Hotel Royal Inn,Hotel,,,Location:4.5/5 | Hospitality:3.8/5 | Facilities:3.3/5 | Cleanliness:3.5/5 | Value for Money:3.8/5 | Food:3.6/5,,,,,,,,,,,,,,,,,,,
Indore,India,22.711088,75.875616,Hotel Rama Inn,Hotel,,,Location:3.5/5 | Hospitality:2.7/5 | Facilities:2.4/5 | Cleanliness:2.3/5 | Value for Money:2.6/5 | Food:1.9/5,,,,,,,,,,,,,,,,,,,
DEOGHAR,India,24.511849,86.696999,Hotel Park View,Hotel,,,,,,,,,,,,,,,,,,,,,,
Indore,India,22.2226,76.0387,Rewa Resort,Hotel,,,,,,,,,,,,,,,,,,,,,,
Idduki,India,9.602654,77.165802,Deervilla Home Stay,Hotel,,,,,,,,,,,,,,,,,,,,,,
Guwahati,India,26.112876,91.750938,Hotel Royal Heritage,Hotel,,,Location:3/5 | Hospitality:3/5 | Facilities:3/5 | Cleanliness:3.8/5 | Value for Money:3/5 | Food:3.5/5,,,,,,,,,,,,,,,,,,,
Chikmagalur,India,13.155903,75.511358,Honeyvale Homestay,Hotel,,,,,,,,,,,,,,,,,,,,,,
Udaipur,India,24.10184,74.441901,FORT DHARIYAWAD,Hotel,,,,,,,,,,,,,,,,,,,,,,
Indore,India,22.736605,75.773124,Dream World Resort,Hotel,,,Location:4.5/5 | Hospitality:4.8/5 | Facilities:4/5 | Cleanliness:4.2/5 | Value for Money:4.8/5 | Food:4.2/5,,,,,,,,,,,,,,,,,,,
Kohima,India,10.239291,77.497634,Hotel Ruby International,Hotel,,,,,,,,,,,,,,,,,,,,,,
Udaipur,India,24.576107,73.69744,Hotel Hadi Rani Palace,Hotel,,,Location:3.9/5 | Hospitality:3.8/5 | Facilities:3.4/5 | Cleanliness:3.8/5 | Value for Money:3.8/5 | Food:3.5/5,,,,,,,,,,,,,,,,,,,
Gwalior,India,0,0,Heaven Homes Service Apartment,Hotel,,,,,,,,,,,,,,,,,,,,,,
Palampur,India,32.1011,76.5332,Hotel Highland Regency,Hotel,,,Location:4.2/5 | Hospitality:4.4/5 | Facilities:3.6/5 | Cleanliness:4.2/5 | Value for Money:4.4/5 | Food:4.2/5,,,,,,,,,,,,,,,,,,,
Tirupati,India,13.629449,79.423943,Hotel Pasuparthy Residency,Hotel,,,Location:4.7/5 | Hospitality:4.6/5 | Facilities:4.6/5 | Cleanliness:4.7/5 | Value for Money:4.6/5 | Food:4.4/5,,,,,,,,,,,,,,,,,,,
Indore,India,22.720943,75.876476,Amrit Residency,Hotel,,,Location:4.7/5 | Hospitality:4/5 | Facilities:3.7/5 | Cleanliness:4/5 | Value for Money:4/5 | Food:3.7/5,,,,,,,,,,,,,,,,,,,
Azamgarh,India,26.0529082,83.1760311,STARiHOTEL Azamgarh,Hotel,,,,,,,,,,,,,,,,,,,,,,
Lachung,India,27.6967,88.7484,Delight Hotels Royal Lachung,Hotel,,,Location:4.4/5 | Hospitality:3.8/5 | Facilities:3.3/5 | Cleanliness:3.8/5 | Value for Money:3.8/5 | Food:4.2/5,,,,,,,,,,,,,,,,,,,
Idduki,India,0,0,DOLPHIN RESIDENCY,Hotel,,,,,,,,,,,,,,,,,,,,,,
Chikmagalur,India,0,0,prakash lodge,Hotel,,,,,,,,,,,,,,,,,,,,,,
MountAbu,India,24.53712,72.795208,Hotel Bhagwati International - 28 kms from Mt Abu,Hotel,,,Location:2.9/5 | Hospitality:3.2/5 | Facilities:3.1/5 | Cleanliness:2.6/5 | Value for Money:3.2/5 | Food:2.8/5,,,,,,,,,,,,,,,,,,,
Kashid,India,0,0,Nisarg Tourist Home,Hotel,,,,,,,,,,,,,,,,,,,,,,
Muvattupuzha,India,0,0,Ambadi tourist home,Hotel,,,,,,,,,,,,,,,,,,,,,,
Dharwad,India,15.44705,75.012814,KARISHMA RESIDENCY,Hotel,,,Location:4.3/5 | Hospitality:3.7/5 | Facilities:3.7/5 | Cleanliness:3.7/5 | Value for Money:3.7/5 | Food:1.3/5,,,,,,,,,,,,,,,,,,,
NubraValley,India,0,0,Natures Nest North Luxury Camps,Hotel,,,,,,,,,,,,,,,,,,,,,,
Shimoga,India,14.211721,74.872552,Ajjanamane Homestay,Hotel,,,,,,,,,,,,,,,,,,,,,,
Nainital,India,29.38999857,79.44644612,Hotel Rio Grand,Hotel,,,,,,,,,,,,,,,,,,,,,,
MountAbu,India,24.590026,72.711359,Hotel Shanti,Hotel,,,,,,,,,,,,,,,,,,,,,,
Dwarika,India,22.248106,68.956723,Hotel Sea View,Hotel,,,,,,,,,,,,,,,,,,,,,,
WeekendGetawaysAroundHyderabad,India,17.44572,78.392557,Horizon Residency,Hotel,,,Location:4.2/5 | Hospitality:4.2/5 | Facilities:4/5 | Cleanliness:4.1/5 | Value for Money:4.2/5 | Food:3.3/5,,,,,,,,,,,,,,,,,,,
Udaipur,India,24.575361,73.692129,Hotel Love Kush,Hotel,,,,,,,,,,,,,,,,,,,,,,
Madurai,India,9.937187,78.144898,Hotel Krishna Residency,Hotel,,,,,,,,,,,,,,,,,,,,,,
Uttarkashi,India,30.807394,78.450815,Kuflon Basics,Hotel,,,,,,,,,,,,,,,,,,,,,,
Chikmagalur,India,0,0,Koffeewoods Homestay,Hotel,,,,,,,,,,,,,,,,,,,,,,
Muvattupuzha,India,0,0,Deepika Inn,Hotel,,,,,,,,,,,,,,,,,,,,,,
MountAbu,India,24.588845,72.712088,Hotel Neelkanth,Hotel,,,,,,,,,,,,,,,,,,,,,,
Indore,India,22.725264,75.884699,Hotel Sapphire Star,Hotel,,,Location:4.8/5 | Hospitality:4.3/5 | Facilities:4.3/5 | Cleanliness:4.6/5 | Value for Money:4.3/5 | Food:4.1/5,,,,,,,,,,,,,,,,,,,
Palampur,India,0,0,Earth House,Hotel,,,,,,,,,,,,,,,,,,,,,,
Gwalior,India,26.195253,78.151206,Hotel Shubham Continental,Hotel,,,Location:3.2/5 | Hospitality:3/5 | Facilities:3/5 | Cleanliness:2.8/5 | Value for Money:3/5 | Food:3/5,,,,,,,,,,,,,,,,,,,
Dharamshala,India,32.244854,76.332726,OAK VIEW GUEST HOUSE,Hotel,,,,,,,,,,,,,,,,,,,,,,
Udaipur,India,24.574937,73.699765,Royal Hotel,Hotel,,,,,,,,,,,,,,,,,,,,,,
Nainital,India,0,0,Hotel shanta regency,Hotel,,,,,,,,,,,,,,,,,,,,,,
Tirupati,India,0,0,Sri Himalasya Inn,Hotel,,,,,,,,,,,,,,,,,,,,,,
Dapoli,India,17.753197,73.187528,Home Stay Samudraj Bunglaw,Hotel,,,,,,,,,,,,,,,,,,,,,,
Varanasi,India,25.327417,82.989001,Anand Lodge,Lodge,,,,,,,,,,,,,,,,,,,,,,
Yavatmal,India,0,0,Trupti Restaurant and Bar and Ganesh Residency,Hotel,,,,,,,,,,,,,,,,,,,,,,
Chikmagalur,India,13.2932,75.8418,Kemmanagundi Homestay,Hotel,,,Location:2/5 | Hospitality:5/5 | Facilities:2/5 | Cleanliness:3/5 | Value for Money:5/5 | Food:4/5,,,,,,,,,,,,,,,,,,,
Dharamshala,India,32.254475,76.302009,The Horizon Villa- North,Hotel,,,Location:4.3/5 | Hospitality:4.2/5 | Facilities:3.8/5 | Cleanliness:4.5/5 | Value for Money:4.1/5 | Food:4.1/5,,,,,,,,,,,,,,,,,,,
Indore,India,22.693808,75.867159,Golden Treat,Hotel,,,Location:4.8/5 | Hospitality:4.8/5 | Facilities:4.4/5 | Cleanliness:4.6/5 | Value for Money:4.8/5 | Food:4.4/5,,,,,,,,,,,,,,,,,,,
Lalitpur,India,24.701662,78.420967,Hotel Anand Residency,Hotel,,,Location:3/5 | Hospitality:5/5 | Facilities:3/5 | Cleanliness:4/5 | Value for Money:5/5 | Food:4/5,,,,,,,,,,,,,,,,,,,
Indore,India,22.7242976,75.8255508,Green Tulip,Hotel,,,,,,,,,,,,,,,,,,,,,,
Guwahati,India,26.176553,91.754105,Hotel Amrit Regency,Hotel,,,Location:4.4/5 | Hospitality:4.2/5 | Facilities:3.2/5 | Cleanliness:3.4/5 | Value for Money:4.2/5 | Food:2.8/5,,,,,,,,,,,,,,,,,,,
Indore,India,22.718142,75.872673,Hotel Shreemaya,Hotel,,,Location:4.5/5 | Hospitality:4.6/5 | Facilities:4.4/5 | Cleanliness:4.5/5 | Value for Money:4.6/5 | Food:4.8/5,,,,,,,,,,,,,,,,,,,
Chikmagalur,India,0,0,Hotel Prakash,Hotel,,,,,,,,,,,,,,,,,,,,,,
Guwahati,India,26.132924,91.793251,ROYALE de CASA,Hotel,,,Location:4.7/5 | Hospitality:5/5 | Facilities:5/5 | Cleanliness:5/5 | Value for Money:5/5 | Food:5/5,,,,,,,,,,,,,,,,,,,
Udaipur,India,24.575644,73.69761,Hotel Sneh Palace,Hotel,,,,,,,,,,,,,,,,,,,,,,
DEOGHAR,India,24.493031,86.694157,Clarks Inn Amrapali,Hotel,,,Location:4.5/5 | Hospitality:4/5 | Facilities:4/5 | Cleanliness:4.4/5 | Value for Money:4/5 | Food:3.5/5,,,,,,,,,,,,,,,,,,,
Valsad,India,20.611155,72.932739,HOTEL GRANDEUR,Hotel,,,Location:4/5 | Hospitality:4.3/5 | Facilities:4/5 | Cleanliness:4.3/5 | Value for Money:4.3/5 | Food:4.3/5,,,,,,,,,,,,,,,,,,,
Udaipur,India,24.577736,73.701443,Hotel Surbhi Palace,Hotel,,,Location:4.2/5 | Hospitality:4.2/5 | Facilities:4.2/5 | Cleanliness:4.2/5 | Value for Money:4.2/5 | Food:4.2/5,,,,,,,,,,,,,,,,,,,
Kollam,India,0,0,Raksha Heritage,Hotel,,,,,,,,,,,,,,,,,,,,,,
Tirupati,India,0,0,Raj Residency Deluxe Lodge,Lodge,,,,,,,,,,,,,,,,,,,,,,
Madhupur,India,0,0,Aangan Marraige Hall and Guest house,Hotel,,,,,,,,,,,,,,,,,,,,,,
Washim,India,20.1124,77.1368,Hotel Washimkar Executive,Hotel,,,Location:5/5 | Hospitality:5/5 | Facilities:4.5/5 | Cleanliness:4.5/5 | Value for Money:5/5 | Food:3.5/5,,,,,,,,,,,,,,,,,,,
Udaipur,India,24.548287,73.674983,Devraj Villa,Hotel,,,,,,,,,,,,,,,,,,,,,,
Udaipur,India,24.567592,73.677763,Jagmandir Island Palace,Hotel,,,,,,,,,,,,,,,,,,,,,,
Nainital,India,29.344583,79.558343,PRIM Resorts - Fredys Bungalow Nainital,Hotel,,,,,,,,,,,,,,,,,,,,,,
Nainital,India,29.365122,79.551659,"Shikha Inn Resort, Bhimtal, 20 kms from Nainital",Hotel,,,Location:4.7/5 | Hospitality:3/5 | Facilities:3.7/5 | Cleanliness:3.7/5 | Value for Money:3/5 | Food:3.3/5,,,,,,,,,,,,,,,,,,,
Patiala,India,30.34058,76.401074,Kaka Hotel,Hotel,,,Location:3/5 | Hospitality:2/5 | Facilities:2/5 | Cleanliness:2/5 | Value for Money:2/5 | Food:2/5,,,,,,,,,,,,,,,,,,,
Indore,India,22.6476809,75.961062,Crescent Resort and Spa Indore,Hotel,,,,,,,,,,,,,,,,,,,,,,
Indore,India,0,0,Hotel Divya Palace,Hotel,,,,,,,,,,,,,,,,,,,,,,
Bhimavaram,India,0,0,Hotel Pranams,Hotel,,,,,,,,,,,,,,,,,,,,,,
Satna,India,0,0,Hotel Apaar Residency,Hotel,,,,,,,,,,,,,,,,,,,,,,
Chikmagalur,India,13.386439,75.767546,The Spectrum,Hotel,,,,,,,,,,,,,,,,,,,,,,
Baharampur,India,24.0989,88.2577,Hotel Sonali Bangla,Hotel,,,,,,,,,,,,,,,,,,,,,,
MountAbu,India,24.595142,72.720989,Shiv Villa,Hotel,,,Location:3.4/5 | Hospitality:3.4/5 | Facilities:3.3/5 | Cleanliness:3.4/5 | Value for Money:3.4/5 | Food:3.1/5,,,,,,,,,,,,,,,,,,,
Khandwa,India,21.8207,76.3526,Hotel Castle Inn,Hotel,,,Location:4.2/5 | Hospitality:4/5 | Facilities:4.2/5 | Cleanliness:4.5/5 | Value for Money:4/5 | Food:4.2/5,,,,,,,,,,,,,,,,,,,
Tirupati,India,0,0,Hotel Sushma Bording and Lodging,Hotel,,,,,,,,,,,,,,,,,,,,,,
Guwahati,India,26.192823,91.752398,Riverview Guest House,Hotel,,,Location:4.8/5 | Hospitality:3.9/5 | Facilities:3.8/5 | Cleanliness:3.9/5 | Value for Money:3.9/5 | Food:4.1/5,,,,,,,,,,,,,,,,,,,
MountAbu,India,24.592593,72.715625,HG Grandiose Hotel,Hotel,,,Location:4/5 | Hospitality:4/5 | Facilities:3.9/5 | Cleanliness:4.1/5 | Value for Money:3.9/5 | Food:3.9/5,,,,,,,,,,,,,,,,,,,
Dharamshala,India,32.218159,76.318479,Hotel Pine Valley,Hotel,,,,,,,,,,,,,,,,,,,,,,
Guwahati,India,26.178655,91.756422,Hotel Green Valley,Hotel,,,Location:4.5/5 | Hospitality:4.2/5 | Facilities:3.8/5 | Cleanliness:4.4/5 | Value for Money:4.2/5 | Food:3.9/5,,,,,,,,,,,,,,,,,,,
NewTehri,India,0,0,Himalayan Eco Lodge,Lodge,,,,,,,,,,,,,,,,,,,,,,
Idduki,India,9.60616,77.16684,The Makam Residencey,Hotel,,,,,,,,,,,,,,,,,,,,,,
Dharamshala,India,32.247138,76.332308,Turkish Cottage,Hotel,,,Location:4.5/5 | Hospitality:3.8/5 | Facilities:3.8/5 | Cleanliness:4/5 | Value for Money:3.8/5 | Food:4/5,,,,,,,,,,,,,,,,,,,
Nainital,India,29.364899,79.551246,Shikha Inn Resort,Hotel,,,Location:3/5 | Hospitality:0/5 | Facilities:3.5/5 | Cleanliness:4/5 | Value for Money:3.5/5 | Food:0/5,,,,,,,,,,,,,,,,,,,
MountAbu,India,0,0,Hotel Kiran Mount Abu,Hotel,,,,,,,,,,,,,,,,,,,,,,
Udaipur,India,0,0,FM Rooms Udaipur,Hotel,,,,,,,,,,,,,,,,,,,,,,
Nainital,India,0,0,hotel avlokhan,Hotel,,,,,,,,,,,,,,,,,,,,,,
Hassan,India,12.995371,76.080464,Hotel Mayura International,Hotel,,,Location:4.3/5 | Hospitality:4.4/5 | Facilities:4.2/5 | Cleanliness:4.4/5 | Value for Money:4.4/5 | Food:4.4/5,,,,,,,,,,,,,,,,,,,
Saputara,India,20.526017,73.751857,Uday Hill Resort,Hotel,,,Location:3.6/5 | Hospitality:3.2/5 | Facilities:3.2/5 | Cleanliness:3.8/5 | Value for Money:3.2/5 | Food:3.2/5,,,,,,,,,,,,,,,,,,,
Udaipur,India,24.576246,73.691181,Hotel Neelam Palace,Hotel,,,,,,,,,,,,,,,,,,,,,,
Nainital,India,29.361723,79.541144,Aamod Resort - Bhimtal,Hotel,,,Location:3.6/5 | Hospitality:3.9/5 | Facilities:3.9/5 | Cleanliness:4.1/5 | Value for Money:3.9/5 | Food:3.8/5,,,,,,,,,,,,,,,,,,,
Dharamshala,India,0,0,PAUL HOUSE,Hotel,,,,,,,,,,,,,,,,,,,,,,
Udaipur,India,24.535442,73.681425,Singhi Villa Guest House,Hotel,,,,,,,,,,,,,,,,,,,,,,
Nainital,India,29.4471236,79.5621,Kumaon Roop Resort- Ramgarh,Hotel,,,Location:3/5 | Hospitality:0/5 | Facilities:2/5 | Cleanliness:3/5 | Value for Money:3/5 | Food:0/5,,,,,,,,,,,,,,,,,,,
Gwalior,India,26.215473,78.176453,Gulmohar Guest House,Hotel,,,Location:4.7/5 | Hospitality:4.7/5 | Facilities:4.2/5 | Cleanliness:4.5/5 | Value for Money:4.7/5 | Food:3.8/5,,,,,,,,,,,,,,,,,,,
Dharamshala,India,32.23864,76.323527,Hotel Buddhas Valley,Hotel,,,,,,,,,,,,,,,,,,,,,,
Kashipur,India,0,0,Hotel Business Inn,Hotel,,,,,,,,,,,,,,,,,,,,,,
Guwahati,India,26.166284,91.777256,Ashirwad Homestay,Hotel,,,,,,,,,,,,,,,,,,,,,,
Churu,India,28.301673,74.969177,Hotel Malji Ka Kamra,Hotel,,,Location:4/5 | Hospitality:5/5 | Facilities:4/5 | Cleanliness:5/5 | Value for Money:5/5 | Food:5/5,,,,,,,,,,,,,,,,,,,
Nainital,India,29.395323,79.458979,Snow View Huts,Hotel,,,,,,,,,,,,,,,,,,,,,,
Dharamshala,India,32.243818,76.332525,Vikrant Hotel & Restaurant,Hotel,,,Location:4.2/5 | Hospitality:3.2/5 | Facilities:3.2/5 | Cleanliness:3.2/5 | Value for Money:3.2/5 | Food:4/5,,,,,,,,,,,,,,,,,,,
Gwalior,India,26.280869,78.200239,Hotel Gwalior Regency,Hotel,,,Location:4.2/5 | Hospitality:4/5 | Facilities:3.9/5 | Cleanliness:4/5 | Value for Money:4.1/5 | Food:4.1/5,,,,,,,,,,,,,,,,,,,
Kohima,India,0,0,The Classic Aradura Inn,Hotel,,,,,,,,,,,,,,,,,,,,,,
Nainital,India,29.396467,79.444232,Arif Castles,Hotel,,,Location:3.5/5 | Hospitality:4.1/5 | Facilities:3.9/5 | Cleanliness:3.8/5 | Value for Money:3.9/5 | Food:3.4/5,,,,,,,,,,,,,,,,,,,
Nainital,India,29.3659,79.535,Green Glen,Hotel,,,,,,,,,,,,,,,,,,,,,,
MountAbu,India,24.582807,72.722581,Royale Palace,Hotel,,,Location:3.6/5 | Hospitality:2.8/5 | Facilities:2.2/5 | Cleanliness:3.2/5 | Value for Money:2.8/5 | Food:2/5,,,,,,,,,,,,,,,,,,,
Udaipur,India,0,0,Hotel Riddhi Inn,Hotel,,,,,,,,,,,,,,,,,,,,,,
WeekendGetawaysAroundHyderabad,India,17.423613,78.462219,The Park Hyderabad,Hotel,,,Location:4.5/5 | Hospitality:4/5 | Facilities:4.1/5 | Cleanliness:4.3/5 | Value for Money:4/5 | Food:4.1/5,,,,,,,,,,,,,,,,,,,
Kashipur,India,0,0,Hotel royal inn,Hotel,,,,,,,,,,,,,,,,,,,,,,
WeekendGetawaysAroundHyderabad,India,17.444003,78.466197,Kamat Lingapur Hotel,Hotel,,,Location:4.2/5 | Hospitality:4.2/5 | Facilities:3.9/5 | Cleanliness:4.3/5 | Value for Money:4.2/5 | Food:4/5,,,,,,,,,,,,,,,,,,,
Tirupati,India,13.625793,79.431632,Bliss Hotel,Hotel,,,Location:4.5/5 | Hospitality:4.4/5 | Facilities:4.3/5 | Cleanliness:4.3/5 | Value for Money:4.2/5 | Food:4.4/5,,,,,,,,,,,,,,,,,,,
Kollam,India,0,0,Pallimukku homestay,Hotel,,,,,,,,,,,,,,,,,,,,,,
Tirupati,India,13.629596,79.416871,SRI MEENAKSHI RESIDENCY,Hotel,,,,,,,,,,,,,,,,,,,,,,
Nainital,India,29.382749,79.464581,Welcome Park,Hotel,,,Location:4.2/5 | Hospitality:4.1/5 | Facilities:3.7/5 | Cleanliness:3.8/5 | Value for Money:3.7/5 | Food:4/5,,,,,,,,,,,,,,,,,,,
Guwahati,India,26.18497,91.747367,Star Lodge,Lodge,,,Location:3/5 | Hospitality:3.5/5 | Facilities:3.5/5 | Cleanliness:2.5/5 | Value for Money:3.5/5 | Food:3/5,,,,,,,,,,,,,,,,,,,
Nainital,India,29.382597,79.464409,hotel prashant,Hotel,,,,,,,,,,,,,,,,,,,,,,
Udaipur,India,24.5809,73.6828,Harsh Vilas Guest House,Hotel,,,Location:5/5 | Hospitality:5/5 | Facilities:5/5 | Cleanliness:4/5 | Value for Money:5/5 | Food:5/5,,,,,,,,,,,,,,,,,,,
NubraValley,India,34.585531,77.47735,Apple Cottage,Hotel,,,,,,,,,,,,,,,,,,,,,,
Dharamshala,India,0,0,Holiday Villa,Hotel,,,,,,,,,,,,,,,,,,,,,,
Nainital,India,29.37593,79.463853,MOHINI INN NAINITAL,Hotel,,,,,,,,,,,,,,,,,,,,,,
Madurai,India,0,0,Royal Garden,Hotel,,,,,,,,,,,,,,,,,,,,,,
Nainital,India,29.3957,79.4431,Hotel Relax Inn,Hotel,,,,,,,,,,,,,,,,,,,,,,
Muvattupuzha,India,0,0,Wetzler Hotels and Resorts,Hotel,,,,,,,,,,,,,,,,,,,,,,
Ambaji,India,24.332569,72.847749,Hotel Ellora by Sky Stays,Hotel,,,,,,,,,,,,,,,,,,,,,,
Dapoli,India,17.738318,73.200362,Chira Meadows Eco Resort,Hotel,,,Location:4.8/5 | Hospitality:5/5 | Facilities:5/5 | Cleanliness:5/5 | Value for Money:5/5 | Food:4.8/5,,,,,,,,,,,,,,,,,,,
Dharamshala,India,32.110225,76.278195,Hotel Sidharth,Hotel,,,,,,,,,,,,,,,,,,,,,,
Dwarika,India,0,0,Hotel Damji,Hotel,,,,,,,,,,,,,,,,,,,,,,
Firozabad,India,0,0,Green Park Hotel,Hotel,,,,,,,,,,,,,,,,,,,,,,
Indore,India,22.630185,75.611115,Monarch Hotel,Hotel,,,Location:3.5/5 | Hospitality:3/5 | Facilities:1.5/5 | Cleanliness:2/5 | Value for Money:2/5 | Food:3/5,,,,,,,,,,,,,,,,,,,
Dharamshala,India,32.1943,76.3462,Dharamshala Paradise,Hotel,,,,,,,,,,,,,,,,,,,,,,
Hassan,India,0,0,La Flora Pavanputra Resort and Spa,Hotel,,,,,,,,,,,,,,,,,,,,,,
Varanasi,India,0,0,K J Internationa Hotel,Hotel,,,,,,,,,,,,,,,,,,,,,,
Udaipur,India,24.590661,73.678077,Hotel Rampratap Palace,Hotel,,,Location:4.9/5 | Hospitality:4.4/5 | Facilities:4.3/5 | Cleanliness:4.6/5 | Value for Money:4.4/5 | Food:4.5/5,,,,,,,,,,,,,,,,,,,
Mahbubnagar,India,0,0,Ganesh Lodge,Lodge,,,,,,,,,,,,,,,,,,,,,,
Udaipur,India,24.580311,73.682573,Gangaur Palace,Hotel,,,Location:5/5 | Hospitality:4.6/5 | Facilities:4.2/5 | Cleanliness:4.5/5 | Value for Money:4.6/5 | Food:4.4/5,,,,,,,,,,,,,,,,,,,
MountAbu,India,0,0,hotel ganesh,Hotel,,,,,,,,,,,,,,,,,,,,,,
Indore,India,22.747,75.8962,Hotel Silver Shed,Hotel,,,Location:3.1/5 | Hospitality:3.3/5 | Facilities:2.9/5 | Cleanliness:3.3/5 | Value for Money:3.3/5 | Food:3.7/5,,,,,,,,,,,,,,,,,,,
Udaipur,India,24.586243,73.710702,Radisson Udaipur,Hotel,,,,,,,,,,,,,,,,,,,,,,
Dharamshala,India,32.232534,76.324266,Sai Cottage,Hotel,,,,,,,,,,,,,,,,,,,,,,
Uttarkashi,India,30.879923,78.0846,hotel classic view,Hotel,,,,,,,,,,,,,,,,,,,,,,
Nainital,India,29.385067,79.529405,UNA Comfort Misty Oaks Bhowali,Hotel,,,Location:4.8/5 | Hospitality:4/5 | Facilities:4.2/5 | Cleanliness:4.8/5 | Value for Money:4/5 | Food:3.8/5,,,,,,,,,,,,,,,,,,,
Dharamshala,India,32.219041,76.323402,Hotel Victoriya Palace,Hotel,,,Location:4.3/5 | Hospitality:3.9/5 | Facilities:3.2/5 | Cleanliness:3.9/5 | Value for Money:3.8/5 | Food:3.1/5,,,,,,,,,,,,,,,,,,,
Udaipur,India,24.593977,73.769706,GenX Valley View Udaipur,Hotel,,,,,,,,,,,,,,,,,,,,,,
Udaipur,India,24.581022,73.680417,Hanuman Ghat Hotel,Hotel,,,,,,,,,,,,,,,,,,,,,,
Gwalior,India,26.195151,78.151249,Hotel Golden Square,Hotel,,,Location:5/5 | Hospitality:5/5 | Facilities:5/5 | Cleanliness:5/5 | Value for Money:5/5 | Food:5/5,,,,,,,,,,,,,,,,,,,
Udaipur,India,24.577271,73.700755,Hotel Savera,Hotel,,,Location:4.9/5 | Hospitality:4/5 | Facilities:4/5 | Cleanliness:4.4/5 | Value for Money:4/5 | Food:4.2/5,,,,,,,,,,,,,,,,,,,
Khandwa,India,0,0,Hotel Yuvraj,Hotel,,,,,,,,,,,,,,,,,,,,,,
Madurai,India,0,0,anussya apartments,Hotel,,,,,,,,,,,,,,,,,,,,,,
Tirupati,India,13.629096,79.42332,Kalyan Residency,Hotel,,,Location:4.1/5 | Hospitality:3.9/5 | Facilities:3.7/5 | Cleanliness:3.8/5 | Value for Money:3.8/5 | Food:3.2/5,,,,,,,,,,,,,,,,,,,
Dharamshala,India,32.219678,76.320933,Hotel The Oak Valley,Hotel,,,Location:3.2/5 | Hospitality:3.5/5 | Facilities:2.8/5 | Cleanliness:3.1/5 | Value for Money:3.5/5 | Food:3.3/5,,,,,,,,,,,,,,,,,,,
Dharamshala,India,32.230755,76.312096,Hotel Stella Fresh,Hotel,,,,,,,,,,,,,,,,,,,,,,
Udaipur,India,24.568297,73.641034,Fateh Garh Resort,Hotel,,,Location:4.7/5 | Hospitality:4.6/5 | Facilities:4.3/5 | Cleanliness:4.7/5 | Value for Money:4.6/5 | Food:4.2/5,,,,,,,,,,,,,,,,,,,
Chikmagalur,India,13.496349,75.802511,Halli Berri,Hotel,,,,,,,,,,,,,,,,,,,,,,
Varanasi,India,25.318506,83.000785,Hotel Basant,Hotel,,,,,,,,,,,,,,,,,,,,,,
Udaipur,India,24.532391,73.713259,Umaid Villa,Hotel,,,Location:2/5 | Hospitality:2/5 | Facilities:2/5 | Cleanliness:2.5/5 | Value for Money:2/5 | Food:3.5/5,,,,,,,,,,,,,,,,,,,
Udaipur,India,24.571694,73.648137,Devra - Mahindra Homestays,Hotel,,,Location:4.5/5 | Hospitality:5/5 | Facilities:3.5/5 | Cleanliness:5/5 | Value for Money:3/5 | Food:5/5,,,,,,,,,,,,,,,,,,,
Chikmagalur,India,13.320756,75.772382,Rest Inn,Hotel,,,Location:4.6/5 | Hospitality:3.6/5 | Facilities:3.3/5 | Cleanliness:4.1/5 | Value for Money:3.6/5 | Food:3.6/5,,,,,,,,,,,,,,,,,,,
Dharamshala,India,32.242844,76.331741,Sangam Hotel and Restaurant,Hotel,,,,,,,,,,,,,,,,,,,,,,
Udaipur,India,24.578729,73.682821,Shiva Guest House,Hotel,,,,,,,,,,,,,,,,,,,,,,
Udaipur,India,24.580397,73.679513,The Royal Lake View Villa,Hotel,,,,,,,,,,,,,,,,,,,,,,
Tirupati,India,13.628411,79.425877,Vikram Hotel,Hotel,,,Location:4.5/5 | Hospitality:3.6/5 | Facilities:3/5 | Cleanliness:3.5/5 | Value for Money:3.5/5 | Food:3/5,,,,,,,,,,,,,,,,,,,
Udaipur,India,24.564884,73.72567,Meenakshi Hotel,Hotel,,,,,,,,,,,,,,,,,,,,,,
WeekendGetawaysAroundHyderabad,India,15.8343,78.0411,DVR Mansion,Hotel,,,Location:5/5 | Hospitality:4.8/5 | Facilities:4.7/5 | Cleanliness:4.9/5 | Value for Money:4.8/5 | Food:4.7/5,,,,,,,,,,,,,,,,,,,
Balasore,India,21.499561,86.923108,BARJORJIS BANJARA,Hotel,,,,,,,,,,,,,,,,,,,,,,
Muvattupuzha,India,0,0,Geojith residency,Hotel,,,,,,,,,,,,,,,,,,,,,,
Tirupati,India,13.634343,79.511238,Hotel K R Bhavan,Hotel,,,,,,,,,,,,,,,,,,,,,,
Tirupati,India,13.627527,79.429031,Minerva Grand,Hotel,,,Location:4.7/5 | Hospitality:4.5/5 | Facilities:4.3/5 | Cleanliness:4.6/5 | Value for Money:4.5/5 | Food:4.5/5,,,,,,,,,,,,,,,,,,,
Udaipur,India,24.5885,73.7055,Sun Heritage Home,Hotel,,,,,,,,,,,,,,,,,,,,,,
Chikmagalur,India,0,0,Avathi Homestay,Hotel,,,,,,,,,,,,,,,,,,,,,,
Udaipur,India,24.580202,73.683628,Bhanwar Vilas Guest House,Hotel,,,Location:4.8/5 | Hospitality:4.8/5 | Facilities:4.5/5 | Cleanliness:4.7/5 | Value for Money:4.7/5 | Food:4.4/5,,,,,,,,,,,,,,,,,,,
Dharamshala,India,32.22671,76.316985,Hotel Sagar,Hotel,,,,,,,,,,,,,,,,,,,,,,
Udaipur,India,24.573236,73.693351,Kurabar Kothi,Hotel,,,,,,,,,,,,,,,,,,,,,,
New Delhi And NCR,India,28.643318,77.210509,Roxy Deluxe,Hotel,,Delhi,,,,,,,,,,,,,,,,,,,,
Allepey,India,9.486718,76.338415,Riverland Leisures Houseboat,Houseboat,,,,,,,,,,,,,,,,,,,,,,
New Delhi And NCR,India,28.462186,76.918124,Golden Creepers Farm Holidays,Hotel,,Haryana,,,,,,,,,,,,,,,,,,,,
New Delhi And NCR,India,28.52863,77.272515,Crowne Plaza Okhla,Hotel,,New Delhi,Location:4.1/5 | Hospitality:4.7/5 | Facilities:4.8/5 | Cleanliness:2.9/5 | Value for Money:4.7/5 | Food:3.6/5,,,,,,,,,,,,,,,,,,,
Goa,India,15.271716,73.958361,Hotel Om Shiv,Hotel,,Goa,Location:4.3/5 | Hospitality:4.4/5 | Facilities:4.1/5 | Cleanliness:4.4/5 | Value for Money:4.3/5 | Food:2.9/5,,,,,,,,,,,,,,,,,,,
Agra,India,27.167792,78.048928,The Oberoi Amarvilas,Hotel,,Uttar Pradesh,Location:5.0/5 | Hospitality:0.0/5 | Facilities:5.0/5 | Cleanliness:4.5/5 | Value for Money:4.5/5 | Food:0.0/5,,,,,,,,,,,,,,,,,,,
Anand,India,22.559179,72.973003,Safar Retreat,Hotel,,,,,,,,,,,,,,,,,,,,,,
New Delhi And NCR,India,28.565,77.221834,Sun Villa  South Ext 2,Hotel,,Delhi,,,,,,,,,,,,,,,,,,,,
Wayanad,India,11.54229585,76.04047833,Girassol Serviced Villa,,,kerala,,,,,,,,,,,,,,,,,,,,
Agra,India,27.156385,78.059543,Courtyard by Marriott Agra,Hotel,,Uttar Pradesh,Location:4.4/5 | Hospitality:4.7/5 | Facilities:4.7/5 | Cleanliness:4.9/5 | Value for Money:4.7/5 | Food:4.6/5,,,,,,,,,,,,,,,,,,,
Goa,India,0,0,Studio Service Apartments - Arpora,Hotel,,Goa,,,,,,,,,,,,,,,,,,,,
Ajmer,India,26.453897,74.633067,Hotel Plaza Inn,Hotel,,Rajasthan,Location:4.6/5 | Hospitality:4.6/5 | Facilities:4.5/5 | Cleanliness:4.7/5 | Value for Money:4.6/5 | Food:2.8/5,,,,,,,,,,,,,,,,,,,
Jaipur,India,26.922287,75.796788,Hotel Aishwarya,Hotel,,Rajasthan,Location:2.0/5 | Hospitality:2.5/5 | Facilities:2.5/5 | Cleanliness:0.0/5 | Value for Money:2.5/5 | Food:0.0/5,,,,,,,,,,,,,,,,,,,
Veraval,India,0,0,HOTEL KAVERI,Hotel,,gujarat,,,,,,,,,,,,,,,,,,,,
New Delhi And NCR,India,28.490658,77.084398,Hotel Smart Inn,Hotel,,Haryana,Location:5.0/5 | Hospitality:4.0/5 | Facilities:4.0/5 | Cleanliness:5.0/5 | Value for Money:4.0/5 | Food:0.0/5,,,,,,,,,,,,,,,,,,,
New Delhi And NCR,India,28.545609,77.123047,Hotel Saptagiri,Hotel,,Delhi,,,,,,,,,,,,,,,,,,,,
Mumbai,India,19.198414,72.974173,Hotel Divya International,Hotel,,Maharashtra,,,,,,,,,,,,,,,,,,,,
Bangalore,India,12.988585,77.547767,Sunil Residency,Hotel,,Karnatak,,,,,,,,,,,,,,,,,,,,
Goa,India,0,0,Diakon Holidays,Hotel,,Goa,,,,,,,,,,,,,,,,,,,,
Goa,India,15.25579,73.923877,TripThrill Lotus Hermitage Apartment,Apartment,,Goa,,,,,,,,,,,,,,,,,,,,
Agra,India,27.158808,78.001229,Awtar Mansion,Homestay,,UP,Location:5.0/5 | Hospitality:5.0/5 | Facilities:5.0/5 | Cleanliness:5.0/5 | Value for Money:5.0/5 | Food:5.0/5,,,,,,,,,,,,,,,,,,,
Goa,India,0,0,JOHNS Guest House,Hotel,,goa,,,,,,,,,,,,,,,,,,,,
New Delhi And NCR,India,0,0,Maan K,Hotel,,New Delhi,,,,,,,,,,,,,,,,,,,,
Allepey,,9.490809,76.323597,Seaside Residency,Hotel,,kerala,Location:4.3/5 | Hospitality:3.5/5 | Facilities:3.2/5 | Cleanliness:2.2/5 | Value for Money:3.5/5 | Food:2.3/5,,,,,,,,,,,,,,,,,,,
Bangalore,India,13.028614,77.544948,Hotel Venkat Presidency,Hotel,,Karnataka,,,,,,,,,,,,,,,,,,,,
Pune,India,18.520296,73.876594,Hotel Sagar Plaza,Hotel,,Maharashtra,Location:4.8/5 | Hospitality:4.2/5 | Facilities:4.0/5 | Cleanliness:4.2/5 | Value for Money:4.2/5 | Food:3.0/5,,,,,,,,,,,,,,,,,,,
New Delhi And NCR,India,28.47853,77.098187,Hotel Casagrand,Hotel,,Haryana,,,,,,,,,,,,,,,,,,,,
New Delhi And NCR,India,28.5444,77.2444,The Solace,Hotel,,Delhi,Location:3.6/5 | Hospitality:0.0/5 | Facilities:3.4/5 | Cleanliness:3.1/5 | Value for Money:3.1/5 | Food:0.0/5,,,,,,,,,,,,,,,,,,,
Goa,India,15.375473,73.841859,Stay in a Homestay in Bogmalo,Homestay,,,,,,,,,,,,,,,,,,,,,,
Goa,India,15.625626,73.730846,Laxmi Guest House,Hotel,,Goa,,,,,,,,,,,,,,,,,,,,
New Delhi And NCR,India,28.647347,77.19283,Hotel Benz International,Hotel,,Delhi,Location:3.5/5 | Hospitality:4.0/5 | Facilities:3.5/5 | Cleanliness:1.8/5 | Value for Money:4.0/5 | Food:0.0/5,,,,,,,,,,,,,,,,,,,
Mumbai,India,19.117263,72.882023,Hotel Ace Residency,Hotel,,Maharasta,Location:3.2/5 | Hospitality:3.1/5 | Facilities:2.9/5 | Cleanliness:2.8/5 | Value for Money:3.1/5 | Food:2.7/5,,,,,,,,,,,,,,,,,,,
Akola,India,0,0,Welcome Inn,Hotel,,,Location:5.0/5 | Hospitality:4.6/5 | Facilities:4.2/5 | Cleanliness:3.6/5 | Value for Money:4.6/5 | Food:3.6/5,,,,,,,,,,,,,,,,,,,
New Delhi And NCR,India,28.570535,77.339462,Atithee Residency,Hotel,,Uttar Pradesh,,,,,,,,,,,,,,,,,,,,
Goa,India,15.5434,73.7628,Castle House,Hotel,,Goa,Location:4.2/5 | Hospitality:4.3/5 | Facilities:4.1/5 | Cleanliness:4.1/5 | Value for Money:4.3/5 | Food:3.6/5,,,,,,,,,,,,,,,,,,,
Jaipur,India,26.937619,75.795027,Hotel Goyal Palace,Hotel,,Rajasthan,Location:3.5/5 | Hospitality:4.3/5 | Facilities:3.3/5 | Cleanliness:2.9/5 | Value for Money:3.5/5 | Food:1.3/5,,,,,,,,,,,,,,,,,,,
Ahmedabad,India,23.038643,72.570966,Hotel Sahaj Palace Ahmedabad,Hotel,,Gujarat,Location:5.0/5 | Hospitality:4.5/5 | Facilities:4.5/5 | Cleanliness:5.0/5 | Value for Money:4.5/5 | Food:0.0/5,,,,,,,,,,,,,,,,,,,
Nainital,India,29.337793,79.542911,The Royal Court,Hotel,,Uttrakhand,Location:4.2/5 | Hospitality:4.4/5 | Facilities:4.4/5 | Cleanliness:4.6/5 | Value for Money:4.4/5 | Food:2.6/5,,,,,,,,,,,,,,,,,,,
New Delhi And NCR,India,28.645698,77.215856,Hotel Pallvi Palace,Hotel,,New Delhi,Location:4.2/5 | Hospitality:4.0/5 | Facilities:3.8/5 | Cleanliness:3.7/5 | Value for Money:4.0/5 | Food:2.7/5,,,,,,,,,,,,,,,,,,,
Ahmedabad,India,23.013303,72.638781,Hotel Sagar Residency,Hotel,,Gujarat,,,,,,,,,,,,,,,,,,,,
New Delhi And NCR,India,28.648933,77.188721,Hotel Singh International,Hotel,,Delhi,Location:4.5/5 | Hospitality:3.9/5 | Facilities:4.0/5 | Cleanliness:1.2/5 | Value for Money:3.9/5 | Food:3.2/5,,,,,,,,,,,,,,,,,,,
New Delhi And NCR,India,28.6469,77.1958,Grand Park Inn,Hotel,,Delhi,Location:3.9/5 | Hospitality:4.3/5 | Facilities:4.1/5 | Cleanliness:4.2/5 | Value for Money:4.2/5 | Food:3.5/5,,,,,,,,,,,,,,,,,,,
New Delhi And NCR,India,28.304921,77.11973,Botanix Nature Resort,Hotel,,Haryana,Location:4.0/5 | Hospitality:2.0/5 | Facilities:2.0/5 | Cleanliness:2.0/5 | Value for Money:2.0/5 | Food:0.0/5,,,,,,,,,,,,,,,,,,,
Mumbai,India,19.0914,72.827976,Hotel Royal Garden,Hotel,,Maharashtra,Location:4.5/5 | Hospitality:3.4/5 | Facilities:3.4/5 | Cleanliness:3.6/5 | Value for Money:3.4/5 | Food:2.5/5,,,,,,,,,,,,,,,,,,,
Vijaywada,India,16.502789,80.639627,Fortune Murali Park,Hotel,,Andhra Pradesh,Location:4.7/5 | Hospitality:4.3/5 | Facilities:4.0/5 | Cleanliness:4.1/5 | Value for Money:4.2/5 | Food:3.3/5,,,,,,,,,,,,,,,,,,,
Bangalore,India,12.9594,77.5938,Hotel Telehaus International,Hotel,,Karnataka,Location:4.6/5 | Hospitality:3.5/5 | Facilities:3.3/5 | Cleanliness:3.4/5 | Value for Money:3.6/5 | Food:2.1/5,,,,,,,,,,,,,,,,,,,
New Delhi And NCR,India,28.429355,77.29665,Park Plaza - Faridabad,Hotel,,Haryana,Location:4.5/5 | Hospitality:4.3/5 | Facilities:4.6/5 | Cleanliness:3.9/5 | Value for Money:4.3/5 | Food:2.8/5,,,,,,,,,,,,,,,,,,,
Goa,India,15.545662,73.77321,Flowers Guest House,Hotel,,Goa,,,,,,,,,,,,,,,,,,,,
New Delhi And NCR,India,28.489887,77.083522,Regent Guest House,Hotel,,Haryana,,,,,,,,,,,,,,,,,,,,
Goa,India,15.595297,73.742434,Vagator Suites 1B BHK,Hotel,,,,,,,,,,,,,,,,,,,,,,
New Delhi And NCR,India,28.591879,77.238204,The Lodhi,Hotel,,Delhi,Location:4.0/5 | Hospitality:4.0/5 | Facilities:4.0/5 | Cleanliness:4.0/5 | Value for Money:4.0/5 | Food:4.0/5,,,,,,,,,,,,,,,,,,,
New Delhi And NCR,India,28.652723,77.142337,Hotel Vishesh (Karol Bagh),Hotel,,Delhi,Location:4.4/5 | Hospitality:3.3/5 | Facilities:3.0/5 | Cleanliness:3.6/5 | Value for Money:3.3/5 | Food:0.0/5,,,,,,,,,,,,,,,,,,,
Ahmedabad,India,23.02974,72.554648,Parker Lords Eco Inn,Hotel,,Gujarat,Location:4.8/5 | Hospitality:4.4/5 | Facilities:4.1/5 | Cleanliness:4.0/5 | Value for Money:4.4/5 | Food:2.7/5,,,,,,,,,,,,,,,,,,,
Wardha,India,20.749059,78.601291,Hotel Shavin Residency,Hotel,,Maharashtra,,,,,,,,,,,,,,,,,,,,
New Delhi And NCR,India,28.468028,77.059709,Crowne Plaza Gurgaon,Hotel,,New Delhi,Location:4.9/5 | Hospitality:4.9/5 | Facilities:4.8/5 | Cleanliness:2.3/5 | Value for Money:4.9/5 | Food:3.1/5,,,,,,,,,,,,,,,,,,,
Agra,India,27.190005,78.025003,Hotel Alleviate,Hotel,,Uttar Pradesh,Location:4.3/5 | Hospitality:4.3/5 | Facilities:4.4/5 | Cleanliness:4.5/5 | Value for Money:4.3/5 | Food:3.1/5,,,,,,,,,,,,,,,,,,,
Mumbai,India,19.0162,72.8431,City Guest House,Hotel,,Maharashtra,Location:4.3/5 | Hospitality:3.8/5 | Facilities:3.7/5 | Cleanliness:3.1/5 | Value for Money:3.8/5 | Food:1.8/5,,,,,,,,,,,,,,,,,,,
Wayanad,India,11.650924,76.333636,Wayanad Nature Resorts,Hotel,,Kerala,Location:4.0/5 | Hospitality:3.7/5 | Facilities:3.6/5 | Cleanliness:3.4/5 | Value for Money:3.6/5 | Food:2.3/5,,,,,,,,,,,,,,,,,,,
Pondicherry,India,0,0,Aurovilla,Hotel,,puducherry,,,,,,,,,,,,,,,,,,,,
Goa,India,0,0,Saldanha Kyle Gardens,Hotel,,Goa,,,,,,,,,,,,,,,,,,,,
Alwar,India,27.56303971,76.6050462,Sparrow Inn by MGB Hotels,Hotel,,Rajasthan,Location:5.0/5 | Hospitality:5.0/5 | Facilities:5.0/5 | Cleanliness:5.0/5 | Value for Money:5.0/5 | Food:5.0/5,,,,,,,,,,,,,,,,,,,
New Delhi And NCR,India,28.66336114,77.43447051,Hotel Redbury,Hotel,,Uttar Pradesh,,,,,,,,,,,,,,,,,,,,
New Delhi And NCR,India,28.481247,77.087297,HARIS COURT INNS HOTELS,Hotel,,Haryana,Location:4.4/5 | Hospitality:4.1/5 | Facilities:4.3/5 | Cleanliness:4.7/5 | Value for Money:4.1/5 | Food:2.7/5,,,,,,,,,,,,,,,,,,,
Jaipur,India,26.923455,75.80156,Hotel Fort Chandragupt,Palace,,Rajasthan,Location:4.2/5 | Hospitality:4.3/5 | Facilities:4.1/5 | Cleanliness:4.5/5 | Value for Money:4.3/5 | Food:3.2/5,,,,,,,,,,,,,,,,,,,
Ahmedabad,India,23.0159,72.5094,Hotel  Signature Anand Nagar,Hotel,,Gujarat,,,,,,,,,,,,,,,,,,,,
Bangalore,India,0,0,Aditya Residency,Hotel,,,,,,,,,,,,,,,,,,,,,,
Goa,India,15.529038,73.766962,Hyatt Place Goa/ Candolim,Hotel,,,,,,,,,,,,,,,,,,,,,,
Goa,India,15.623425,73.737197,Treebo Turtle Beach Resort,Hotel,,,,,,,,,,,,,,,,,,,,,,
Goa,India,15.008198,74.027412,Palolem Delights,Hotel,,,,,,,,,,,,,,,,,,,,,,
Bangalore,India,12.977308,77.577164,Taj Mahal Hotel,Hotel,,,,,,,,,,,,,,,,,,,,,,
Bangalore,India,12.936087,77.621421,Zip Rooms Koramangala,Hotel,,,,,,,,,,,,,,,,,,,,,,
Kodaikanal,India,10.23523,77.492567,JC Grand,Hotel,,,Location:4/5 | Hospitality:2/5 | Facilities:2.6/5 | Cleanliness:2.5/5 | Value for Money:2.8/5 | Food:2/5,,,,,,,,,,,,,,,,,,,
Goa,India,15.012418,74.023585,Sun N Moon,Hotel,,,,,,,,,,,,,,,,,,,,,,
Goa,India,15.599028,73.742479,Yo Yo Goa The Apartment Hotel,Hotel,,,,,,,,,,,,,,,,,,,,,,
Kolkata,India,22.618676,88.431602,Atithi Inn,Hotel,,,Location:3.7/5 | Hospitality:4.5/5 | Facilities:3.3/5 | Cleanliness:4/5 | Value for Money:3.3/5 | Food:4/5,,,,,,,,,,,,,,,,,,,
Bangalore,India,12.964364,77.604146,Casa Cottage,Hotel,,,Location:4/5 | Hospitality:5/5 | Facilities:4/5 | Cleanliness:4/5 | Value for Money:5/5 | Food:4/5,,,,,,,,,,,,,,,,,,,
Bangalore,India,12.91576,77.634913,The Elite Royale,Hotel,,,Location:4.1/5 | Hospitality:3.8/5 | Facilities:3.5/5 | Cleanliness:3.8/5 | Value for Money:3.8/5 | Food:3.2/5,,,,,,,,,,,,,,,,,,,
Goa,India,15.002624,74.027672,Sevas Huts and Cabanas,Hotel,,,,,,,,,,,,,,,,,,,,,,
Kolkata,India,0,0,Indrakshi Service Apartment 6,Hotel,,,,,,,,,,,,,,,,,,,,,,
Bangalore,India,12.970306,77.597048,Melange Luxury Service Apartment,Hotel,,,Location:5/5 | Hospitality:4.4/5 | Facilities:4.4/5 | Cleanliness:4.6/5 | Value for Money:4.4/5 | Food:2.6/5,,,,,,,,,,,,,,,,,,,
Kolkata,India,22.5331,88.3472,aasray guest house,Hotel,,,,,,,,,,,,,,,,,,,,,,
Goa,India,15.545883,73.756357,Calangute Residency,Hotel,,,Location:5/5 | Hospitality:4.3/5 | Facilities:4.3/5 | Cleanliness:4.7/5 | Value for Money:4.3/5 | Food:3.7/5,,,,,,,,,,,,,,,,,,,
Kolkata,India,22.641988,88.431125,Swagatam International - VIP Road,Hotel,,,Location:4.3/5 | Hospitality:3.8/5 | Facilities:3.4/5 | Cleanliness:3.3/5 | Value for Money:3.7/5 | Food:2.8/5,,,,,,,,,,,,,,,,,,,
Bangalore,India,12.972688,77.6088,The Orange Hotel,Hotel,,,Location:4.2/5 | Hospitality:3.3/5 | Facilities:2.9/5 | Cleanliness:3.1/5 | Value for Money:3.3/5 | Food:2.6/5,,,,,,,,,,,,,,,,,,,
Bangalore,India,13.031096,77.541845,Orchid Residency,Hotel,,,Location:2.2/5 | Hospitality:2.2/5 | Facilities:2.3/5 | Cleanliness:2.5/5 | Value for Money:2.4/5 | Food:1.9/5,,,,,,,,,,,,,,,,,,,
Bangalore,India,13.020175,77.554517,Hotel Grand Bee,Hotel,,,Location:2.9/5 | Hospitality:4.2/5 | Facilities:3.6/5 | Cleanliness:3.8/5 | Value for Money:3.8/5 | Food:4/5,,,,,,,,,,,,,,,,,,,
Bangalore,India,12.9254,77.5858,Best Western Plus Jagadish,Hotel,,,Location:4.3/5 | Hospitality:3.4/5 | Facilities:3.6/5 | Cleanliness:3.8/5 | Value for Money:3.4/5 | Food:2.8/5,,,,,,,,,,,,,,,,,,,
Kolkata,India,22.569,88.4045,THE PEARL,Hotel,,,Location:3/5 | Hospitality:2.5/5 | Facilities:2/5 | Cleanliness:3/5 | Value for Money:2.5/5 | Food:2.5/5,,,,,,,,,,,,,,,,,,,
Goa,India,15.538909,73.759674,Glens Corner,Hotel,,,,,,,,,,,,,,,,,,,,,,
Goa,India,15.55408,73.753601,Colonia Santa Maria,Hotel,,,Location:4.6/5 | Hospitality:4.3/5 | Facilities:4.2/5 | Cleanliness:4.3/5 | Value for Money:4.3/5 | Food:3.9/5,,,,,,,,,,,,,,,,,,,
Goa,India,0,0,Mamas Mids Homestay,Hotel,,,,,,,,,,,,,,,,,,,,,,
Kolkata,India,22.6145,88.453,NPG Hotel And Restaurant,Hotel,,,,,,,,,,,,,,,,,,,,,,
Goa,India,15.5121,73.7831,Sol De Goa,Hotel,,,Location:4.2/5 | Hospitality:4.4/5 | Facilities:4.5/5 | Cleanliness:4.7/5 | Value for Money:4.4/5 | Food:3.7/5,,,,,,,,,,,,,,,,,,,
Goa,India,15.527425,73.762331,Sonesta Inns,Hotel,,,Location:4.3/5 | Hospitality:4.3/5 | Facilities:3.9/5 | Cleanliness:4.2/5 | Value for Money:4.1/5 | Food:3.6/5,,,,,,,,,,,,,,,,,,,
Goa,India,15.5814,73.7527,Days Guest House,Hotel,,,,,,,,,,,,,,,,,,,,,,
Bangalore,India,0,0,Siesta Sereno 452,Hotel,,,,,,,,,,,,,,,,,,,,,,
Goa,India,15.663894,73.71414,Mandrem Retreat,Hotel,,,Location:4.5/5 | Hospitality:5/5 | Facilities:5/5 | Cleanliness:5/5 | Value for Money:5/5 | Food:4.5/5,,,,,,,,,,,,,,,,,,,
Goa,India,15.619128,73.735142,La Vaiencia,Hotel,,,Location:3.6/5 | Hospitality:4/5 | Facilities:3.3/5 | Cleanliness:3.4/5 | Value for Money:4/5 | Food:3/5,,,,,,,,,,,,,,,,,,,
Kolkata,India,0,0,S E GUEST HOUSE 1,Hotel,,,,,,,,,,,,,,,,,,,,,,
Goa,India,15.258452,73.926228,Rosario's Inn Guest House,Hotel,,,,,,,,,,,,,,,,,,,,,,
Kolkata,India,0,0,Sankalp Apartment,Hotel,,,,,,,,,,,,,,,,,,,,,,
Kolkata,India,0,0,Swans Cottage,Hotel,,,,,,,,,,,,,,,,,,,,,,
Goa,India,15.197328,73.941399,Koithra Holiday Home,Hotel,,,Location:1.8/5 | Hospitality:1/5 | Facilities:2.8/5 | Cleanliness:3/5 | Value for Money:2.5/5 | Food:1/5,,,,,,,,,,,,,,,,,,,
Goa,India,15.546245,73.794239,Belle Vista Wado - Enviro Green Resorts,Hotel,,,Location:3.4/5 | Hospitality:3.6/5 | Facilities:3.9/5 | Cleanliness:3.8/5 | Value for Money:4/5 | Food:2.3/5,,,,,,,,,,,,,,,,,,,
Goa,India,15.398235,73.815819,Hotel Supreme,Hotel,,,Location:4.1/5 | Hospitality:4.1/5 | Facilities:3.7/5 | Cleanliness:3.8/5 | Value for Money:3.9/5 | Food:3.9/5,,,,,,,,,,,,,,,,,,,
Goa,India,0,0,Tanisha Guest House,Hotel,,,,,,,,,,,,,,,,,,,,,,
Goa,India,15.543666,73.767365,Calangute Beauty 2bhk Luxury Apartment,Hotel,,,Location:4/5 | Hospitality:4/5 | Facilities:5/5 | Cleanliness:5/5 | Value for Money:4/5 | Food:4/5,,,,,,,,,,,,,,,,,,,
Kolkata,India,22.561827,88.357885,Mayur Residency,Hotel,,,Location:4.3/5 | Hospitality:4.7/5 | Facilities:4.3/5 | Cleanliness:4.5/5 | Value for Money:4.7/5 | Food:4.3/5,,,,,,,,,,,,,,,,,,,
Kodaikanal,India,10.2455,77.5001,kodaikanal Cottage,Hotel,,,,,,,,,,,,,,,,,,,,,,
Kodaikanal,India,10.239272,77.487234,Vedanta Wake Up Fern Kodaikanal,Hotel,,,,,,,,,,,,,,,,,,,,,,
Goa,India,14.996827,74.03421,Sea Front huts Patnem,Hotel,,,,,,,,,,,,,,,,,,,,,,
Goa,India,15.0456,73.9889,Cuba Patnem,Hotel,,,,,,,,,,,,,,,,,,,,,,
Kolkata,India,22.5711,88.3568,BEEU HOTELS Pvt Ltd,Hotel,,,,,,,,,,,,,,,,,,,,,,
Goa,India,0,0,The Golden Nest Deluxe,Hotel,,,,,,,,,,,,,,,,,,,,,,
Goa,India,15.5971,73.7367,Santonio Beach Resort,Hotel,,,Location:4.2/5 | Hospitality:4.3/5 | Facilities:3.9/5 | Cleanliness:4.3/5 | Value for Money:4.3/5 | Food:2.5/5,,,,,,,,,,,,,,,,,,,
Goa,India,15.599766,73.746039,Coco's Resort,Hotel,,,Location:3.6/5 | Hospitality:3.2/5 | Facilities:3/5 | Cleanliness:3/5 | Value for Money:3.2/5 | Food:3.7/5,,,,,,,,,,,,,,,,,,,
Kodaikanal,India,10.247523,77.50223,Hotel Mount View,Hotel,,,Location:3.5/5 | Hospitality:3.6/5 | Facilities:3.2/5 | Cleanliness:3.3/5 | Value for Money:3.3/5 | Food:2.8/5,,,,,,,,,,,,,,,,,,,
Goa,India,0,0,Parth Inn,Hotel,,,,,,,,,,,,,,,,,,,,,,
Goa,India,0,0,Apartment C 2 bhk Vision Green,Hotel,,,,,,,,,,,,,,,,,,,,,,
Kolkata,India,0,0,Sunil Enterprise Guest House Block BE 219,Hotel,,,,,,,,,,,,,,,,,,,,,,
Kolkata,India,22.631146,88.433709,O2 Oxygen Hotel,Hotel,,,Location:4.2/5 | Hospitality:3.6/5 | Facilities:3.4/5 | Cleanliness:3.3/5 | Value for Money:3.2/5 | Food:3.7/5,,,,,,,,,,,,,,,,,,,
Goa,India,15.549723,73.762553,RK Pleasing Homes,Hotel,,,Location:3.7/5 | Hospitality:3.8/5 | Facilities:3.5/5 | Cleanliness:3.5/5 | Value for Money:3.8/5 | Food:3/5,,,,,,,,,,,,,,,,,,,
Kolkata,India,0,0,S E Guest House 4,Hotel,,,,,,,,,,,,,,,,,,,,,,
Bangalore,India,12.919265,77.665108,DoubleTree Suites by Hilton,Hotel,,,Location:4.1/5 | Hospitality:4.4/5 | Facilities:4.6/5 | Cleanliness:5/5 | Value for Money:4.4/5 | Food:3.9/5,,,,,,,,,,,,,,,,,,,
Kolkata,India,22.555366,88.314595,Hotel Shalimar,Hotel,,,Location:4/5 | Hospitality:3/5 | Facilities:3/5 | Cleanliness:3.3/5 | Value for Money:3/5 | Food:3/5,,,,,,,,,,,,,,,,,,,
Goa,India,0,0,FabHotel Candolim,Hotel,,,,,,,,,,,,,,,,,,,,,,
Bangalore,India,12.972804,77.572087,Hotel StayEasy Majestic,Hotel,,,,,,,,,,,,,,,,,,,,,,
Bangalore,India,12.933336,77.610408,Emirates Suites,Hotel,,,Location:5/5 | Hospitality:4/5 | Facilities:4/5 | Cleanliness:4/5 | Value for Money:4/5 | Food:0/5,,,,,,,,,,,,,,,,,,,
Goa,India,15.502472,73.771198,Aldeia Santa Rita,Hotel,,,Location:4.3/5 | Hospitality:4/5 | Facilities:3.5/5 | Cleanliness:3.7/5 | Value for Money:3.7/5 | Food:3.5/5,,,,,,,,,,,,,,,,,,,
Kolkata,India,0,0,Sunil Enterprise Guest House Block CL 192,Hotel,,,,,,,,,,,,,,,,,,,,,,
Goa,India,0,0,Villa Calangute Phase 7,Hotel,,,Location:5/5 | Hospitality:5/5 | Facilities:5/5 | Cleanliness:5/5 | Value for Money:5/5 | Food:5/5,,,,,,,,,,,,,,,,,,,
Goa,India,15.503312,73.770503,Lui Beach Resort,Hotel,,,Location:4.5/5 | Hospitality:4.2/5 | Facilities:4.5/5 | Cleanliness:4.8/5 | Value for Money:4.2/5 | Food:3.8/5,,,,,,,,,,,,,,,,,,,
Kodaikanal,India,10.250787,77.498113,Park View Residency,Hotel,,,Location:4/5 | Hospitality:4.4/5 | Facilities:3.5/5 | Cleanliness:4/5 | Value for Money:4.1/5 | Food:3.5/5,,,,,,,,,,,,,,,,,,,
Goa,India,15.587051,73.812118,Hotel Mayura,Hotel,,,,,,,,,,,,,,,,,,,,,,
Bangalore,India,12.960139,77.644165,Citadel Suites,Hotel,,,Location:4/5 | Hospitality:2.8/5 | Facilities:3.6/5 | Cleanliness:3.7/5 | Value for Money:3.9/5 | Food:2.5/5,,,,,,,,,,,,,,,,,,,
Bangalore,India,12.9694878,77.6064599,Stylotel By Jagadish,Hotel,,,,,,,,,,,,,,,,,,,,,,
Kolkata,India,22.48710281,0,Royal Guest House cum Service Apartment,Hotel,,,,,,,,,,,,,,,,,,,,,,
Kolkata,India,23.694583,87.69205,Vasundhara Inn,Hotel,,,,,,,,,,,,,,,,,,,,,,
Kodaikanal,India,10.2233,77.4685,Shibumi Homestays,Hotel,,,,,,,,,,,,,,,,,,,,,,
Kolkata,India,22.53861,88.37657,Hotel Saad,Hotel,,,Location:3.2/5 | Hospitality:4.1/5 | Facilities:3.9/5 | Cleanliness:4.1/5 | Value for Money:4.1/5 | Food:3.9/5,,,,,,,,,,,,,,,,,,,
Bangalore,India,12.997214,77.580597,Bharat Lodge,Lodge,,,,,,,,,,,,,,,,,,,,,,
Goa,India,15.565848,73.750233,Riverside Regency Resort,Hotel,,,Location:4.1/5 | Hospitality:2.7/5 | Facilities:3.1/5 | Cleanliness:3.4/5 | Value for Money:2.8/5 | Food:2.8/5,,,,,,,,,,,,,,,,,,,
Bangalore,India,12.975056,77.57891,Adiga Residency,Hotel,,,Location:4/5 | Hospitality:3.2/5 | Facilities:3.5/5 | Cleanliness:3.6/5 | Value for Money:3.6/5 | Food:3.8/5,,,,,,,,,,,,,,,,,,,
Goa,India,15.5738,73.7475,Roadhouse Hostels,Hotel,,,Location:4/5 | Hospitality:5/5 | Facilities:5/5 | Cleanliness:5/5 | Value for Money:5/5 | Food:5/5,,,,,,,,,,,,,,,,,,,
Kolkata,India,0,0,Hotel Meghdoot,Hotel,,,,,,,,,,,,,,,,,,,,,,
Goa,India,15.541407,73.815764,Sangolda Greenz - A Budgeted Stay,Hotel,,,Location:3.5/5 | Hospitality:5/5 | Facilities:3/5 | Cleanliness:3/5 | Value for Money:5/5 | Food:3/5,,,,,,,,,,,,,,,,,,,
Bangalore,India,12.917911,77.62409,Rams 4Seasons,Hotel,,,,,,,,,,,,,,,,,,,,,,
Bangalore,India,12.938486,77.626573,Achates Corporate Services Koramangala,Hotel,,,,,,,,,,,,,,,,,,,,,,
Kolkata,India,,,The Crystal Dimora,Hotel,,,,,,,,,,,,,,,,,,,,,,
Kolkata,India,0,0,Miramandir Guest House,Hotel,,,,,,,,,,,,,,,,,,,,,,
Goa,India,0,0,Florys Nest Holiday Home Goa,Hotel,,,,,,,,,,,,,,,,,,,,,,
Kolkata,India,0,0,K K Hospitality Danika Apartment 3,Hotel,,,,,,,,,,,,,,,,,,,,,,
Bangalore,India,12.9673,77.7147,Krishna Nibbana,Hotel,,,,,,,,,,,,,,,,,,,,,,
Goa,India,0,0,ROY N RON HOLIDAY HOMES,Hotel,,,,,,,,,,,,,,,,,,,,,,
Kolkata,India,0,0,HOTEL MAYA INTERNATIONAL,Hotel,,,,,,,,,,,,,,,,,,,,,,
Goa,India,0,0,Coco Heritage Home,Hotel,,,,,,,,,,,,,,,,,,,,,,
Goa,India,15.534811,73.760505,Arabian Retreat,Hotel,,,,,,,,,,,,,,,,,,,,,,
Kodaikanal,India,10.247666,77.506811,Thennagam Residency,Hotel,,,,,,,,,,,,,,,,,,,,,,
Goa,India,15.558968,73.763323,Blue Beach Nest Service Appartment 1 BHK NO 710,Hotel,,,,,,,,,,,,,,,,,,,,,,
Goa,India,0,0,Peles Windsong Wood Cottages on Beach,Hotel,,,,,,,,,,,,,,,,,,,,,,
Bangalore,India,0,0,Hotel Mahaveer,Hotel,,,,,,,,,,,,,,,,,,,,,,
Kolkata,India,0,0,Mishra Residency CL 228,Hotel,,,,,,,,,,,,,,,,,,,,,,
Bangalore,India,12.95788,77.636664,Achates Service Apartment(Domlur),Hotel,,,,,,,,,,,,,,,,,,,,,,
Goa,India,15.551966,73.805717,UNA Homestay Villa Arcangela,Hotel,,,,,,,,,,,,,,,,,,,,,,
Goa,India,15.533488,73.762885,Villa Calangute Phase 5,Hotel,,,,,,,,,,,,,,,,,,,,,,
Bangalore,India,12.855928,77.820825,Imera Spa And Resort,Hotel,,,,,,,,,,,,,,,,,,,,,,
Goa,India,15.484391,73.808966,Miramar Residency,Hotel,,,Location:4/5 | Hospitality:3/5 | Facilities:3/5 | Cleanliness:4/5 | Value for Money:3/5 | Food:4/5,,,,,,,,,,,,,,,,,,,
Bangalore,India,77.583,12.9999,Tulip Inn Bangalore,Hotel,,,,,,,,,,,,,,,,,,,,,,
Goa,India,0,0,Ocean Heights Appartment,Hotel,,,,,,,,,,,,,,,,,,,,,,
Goa,India,15.515481,73.769295,Resort Dona Alcina,Hotel,,,Location:4.9/5 | Hospitality:2.5/5 | Facilities:3.1/5 | Cleanliness:3.4/5 | Value for Money:2.8/5 | Food:2.9/5,,,,,,,,,,,,,,,,,,,
Bangalore,India,12.880421,77.643757,Manipal County Resort And Spa,Hotel,,,Location:4.5/5 | Hospitality:4/5 | Facilities:4/5 | Cleanliness:4/5 | Value for Money:4.5/5 | Food:4/5,,,,,,,,,,,,,,,,,,,
Goa,India,15.602894,73.749784,Orritel Village Square,Hotel,,,Location:4.3/5 | Hospitality:0/5 | Facilities:4/5 | Cleanliness:4.7/5 | Value for Money:5/5 | Food:0/5,,,,,,,,,,,,,,,,,,,
Goa,India,15.5073,73.7701,Sodder's Beach Classic,Hotel,,,Location:3.4/5 | Hospitality:2.2/5 | Facilities:2.2/5 | Cleanliness:2.2/5 | Value for Money:2.6/5 | Food:1/5,,,,,,,,,,,,,,,,,,,
Kolkata,India,22.52593,88.371554,Pincon Guest House,Hotel,,,,,,,,,,,,,,,,,,,,,,
Bangalore,India,12.966229,77.594821,Hotel Ramanashree Richmond,Hotel,,,Location:4.2/5 | Hospitality:3.5/5 | Facilities:3.2/5 | Cleanliness:3.4/5 | Value for Money:3.5/5 | Food:3.5/5,,,,,,,,,,,,,,,,,,,
Goa,India,15.397377,73.812826,The HQ,Hotel,,,Location:4.3/5 | Hospitality:4.5/5 | Facilities:4.4/5 | Cleanliness:4.5/5 | Value for Money:4.5/5 | Food:4/5,,,,,,,,,,,,,,,,,,,
Kolkata,India,22.541161,88.352531,Hotel Casa Fortuna,Hotel,,,Location:4.4/5 | Hospitality:4.5/5 | Facilities:4.3/5 | Cleanliness:4.6/5 | Value for Money:4.5/5 | Food:3.8/5,,,,,,,,,,,,,,,,,,,
Goa,India,15.536234,73.762936,Delta Residency Goa,Hotel,,,,,,,,,,,,,,,,,,,,,,
Kolkata,India,22.56162,88.357652,Hotel AL Sana,Hotel,,,,,,,,,,,,,,,,,,,,,,
Goa,India,15.55014,73.758042,Celjoan Guest House,Hotel,,,,,,,,,,,,,,,,,,,,,,
Bangalore,India,12.994415,77.571707,Hotel Skyland,Hotel,,,,,,,,,,,,,,,,,,,,,,
Kolkata,India,22.471847,88.379017,Chaya Neer Guest House,Hotel,,,,,,,,,,,,,,,,,,,,,,
Bangalore,India,13.05534,77.601362,Vega Residency,Hotel,,,,,,,,,,,,,,,,,,,,,,
Goa,India,15.530048,73.766531,Casa Lavie,Hotel,,,Location:3.3/5 | Hospitality:3.4/5 | Facilities:3.1/5 | Cleanliness:3.8/5 | Value for Money:3.4/5 | Food:3.1/5,,,,,,,,,,,,,,,,,,,
Bangalore,India,12.978389,77.695793,Magic Inn - Marathahalli,Hotel,,,Location:4.5/5 | Hospitality:4.1/5 | Facilities:3.7/5 | Cleanliness:4.6/5 | Value for Money:4.1/5 | Food:3.9/5,,,,,,,,,,,,,,,,,,,
Goa,India,15.583604,73.740805,Studio 7,Hotel,,,Location:5/5 | Hospitality:5/5 | Facilities:5/5 | Cleanliness:5/5 | Value for Money:5/5 | Food:5/5,,,,,,,,,,,,,,,,,,,
Malappuram,India,11.0276,76.3668,Malabar Hotel,Hotel,,,,,,,,,,,,,,,,,,,,,,
Manali,India,32.245873,77.188908,Hotel Himgiri,Hotel,,,,,,,,,,,,,,,,,,,,,,
Maihar,India,0,0,Vijay Kadambari,Hotel,,,,,,,,,,,,,,,,,,,,,,
Malappuram,India,10.977157,76.218487,Hotel Hiton,Hotel,,,,,,,,,,,,,,,,,,,,,,
Mahabalipuram,India,0,0,Rajalakshmi Guest house,Hotel,,,,,,,,,,,,,,,,,,,,,,
Malvan,India,15.980458,73.495866,Living Space Resort,Hotel,,,,,,,,,,,,,,,,,,,,,,
Mahabalipuram,India,12.626927,80.192711,Tina Blue View Resturant & Lodging,Hotel,,,,,,,,,,,,,,,,,,,,,,
Malappuram,India,11.142515,75.967707,Hotel Pookodans International,Hotel,,,,,,,,,,,,,,,,,,,,,,
Manali,India,32.232569,77.193074,Hotel Chandertal,Hotel,,,,,,,,,,,,,,,,,,,,,,
Mahabalipuram,India,12.619936,80.194623,Odour Resort,Hotel,,,,,,,,,,,,,,,,,,,,,,
Mahabalipuram,India,12.616955,80.193301,Hotel Mamalla Bhavan,Hotel,,,,,,,,,,,,,,,,,,,,,,
Mahabalipuram,India,12.619682,80.195259,Siva Guest House,Hotel,,,Location:4.5/5 | Hospitality:3.5/5 | Facilities:3.2/5 | Cleanliness:3.8/5 | Value for Money:3.5/5 | Food:2.5/5,,,,,,,,,,,,,,,,,,,
Mahabalipuram,India,12.619777,80.196669,Green Woods Beach Resort,Hotel,,,Location:4.7/5 | Hospitality:3.9/5 | Facilities:2.7/5 | Cleanliness:2.7/5 | Value for Money:3.9/5 | Food:2.1/5,,,,,,,,,,,,,,,,,,,
Malvan,India,16.055401,73.465546,Hotel Sagar Kinara,Hotel,,,Location:4.1/5 | Hospitality:4.3/5 | Facilities:3.7/5 | Cleanliness:4/5 | Value for Money:4.3/5 | Food:4/5,,,,,,,,,,,,,,,,,,,
Manali,India,32.273203,77.173059,Hotel Vyas Vatika Manali,Hotel,,,Location:3.3/5 | Hospitality:3.9/5 | Facilities:3.2/5 | Cleanliness:4/5 | Value for Money:3.9/5 | Food:3.7/5,,,,,,,,,,,,,,,,,,,
Mahabalipuram,India,12.61204356,80.18748579,Nirvana Boutique Hotel,Hotel,,,,,,,,,,,,,,,,,,,,,,
Malappuram,India,11.124346,76.238669,Maranat Mana Heritage Homestay,Hotel,,,,,,,,,,,,,,,,,,,,,,
Manali,India,32.22472154,77.18808636,Apple Nest Manali,Hotel,,,Location:4.7/5 | Hospitality:5/5 | Facilities:5/5 | Cleanliness:4.9/5 | Value for Money:5/5 | Food:4.7/5,,,,,,,,,,,,,,,,,,,
Malda,India,25.0006,88.1473,Hotel Gitanjali,Hotel,,,Location:5/5 | Hospitality:5/5 | Facilities:3.5/5 | Cleanliness:4.5/5 | Value for Money:5/5 | Food:5/5,,,,,,,,,,,,,,,,,,,
Malvan,India,16.043902,73.48063,Anushrey Holiday Homes,Hotel,,,Location:4.5/5 | Hospitality:3/5 | Facilities:2.5/5 | Cleanliness:4/5 | Value for Money:3/5 | Food:3/5,,,,,,,,,,,,,,,,,,,
Malerkotla,India,0,0,Inn Fortune,Hotel,,,,,,,,,,,,,,,,,,,,,,
Malappuram,India,10.99631,75.994216,Rydges Inn,Hotel,,,,,,,,,,,,,,,,,,,,,,
Mahabalipuram,India,12.7365,80.2374,The Country Club Jade Resort,Hotel,,,Location:4.2/5 | Hospitality:3.9/5 | Facilities:3.7/5 | Cleanliness:3.7/5 | Value for Money:3.9/5 | Food:3.8/5,,,,,,,,,,,,,,,,,,,
Manali,India,32.237476,77.185744,"The Holiday Resorts & Cottages, Manali",Hotel,,,Location:4.4/5 | Hospitality:4.5/5 | Facilities:4.4/5 | Cleanliness:4.6/5 | Value for Money:4.6/5 | Food:4.2/5,,,,,,,,,,,,,,,,,,,
Malappuram,India,11.235739,76.384254,GREAT HORNBILL RESORTS AND AYURCARE PVT LTD,Hotel,,,Location:5/5 | Hospitality:5/5 | Facilities:5/5 | Cleanliness:5/5 | Value for Money:5/5 | Food:5/5,,,,,,,,,,,,,,,,,,,
Manali,India,32.245945,77.188032,Hotel Vikrant Inn,Hotel,,,,,,,,,,,,,,,,,,,,,,
Manali,India,32.249197,77.185046,Hotel Himalayan Villa,Hotel,,,Location:3.8/5 | Hospitality:3.3/5 | Facilities:3/5 | Cleanliness:3/5 | Value for Money:3.5/5 | Food:3.3/5,,,,,,,,,,,,,,,,,,,
Malvan,India,16.009825,73.492451,Silica Beach Resort,Hotel,,,Location:5/5 | Hospitality:4/5 | Facilities:2/5 | Cleanliness:5/5 | Value for Money:4/5 | Food:5/5,,,,,,,,,,,,,,,,,,,
Malvan,India,0,0,Deepali Residency,Hotel,,,,,,,,,,,,,,,,,,,,,,
Manali,India,0,0,Shobla Pine Royale,Hotel,,,,,,,,,,,,,,,,,,,,,,
Manali,India,32.238411,77.186807,Hotel Triveni,Hotel,,,Location:4/5 | Hospitality:5/5 | Facilities:4/5 | Cleanliness:4/5 | Value for Money:5/5 | Food:4/5,,,,,,,,,,,,,,,,,,,
Manali,India,32.1071,77.1518,Snow Touch Resorts,Hotel,,,Location:5/5 | Hospitality:5/5 | Facilities:5/5 | Cleanliness:5/5 | Value for Money:5/5 | Food:4/5,,,,,,,,,,,,,,,,,,,
Manali,India,32.241393,77.188701,Hotel Neelkanth,Hotel,,,Location:4/5 | Hospitality:2.5/5 | Facilities:1.5/5 | Cleanliness:1.5/5 | Value for Money:2.5/5 | Food:2/5,,,,,,,,,,,,,,,,,,,
Manali,India,32.246549,77.187689,Hotel Drilbu,Hotel,,,Location:4.3/5 | Hospitality:4.2/5 | Facilities:3.8/5 | Cleanliness:3.8/5 | Value for Money:4.2/5 | Food:3.7/5,,,,,,,,,,,,,,,,,,,
Manali,India,32.250276,77.178084,Manali Heights,Hotel,,,Location:4.3/5 | Hospitality:4.6/5 | Facilities:4.1/5 | Cleanliness:4.2/5 | Value for Money:4.3/5 | Food:4.3/5,,,,,,,,,,,,,,,,,,,
Manali,India,32.2401494,77.1886733,Hotel Manali Hill,Hotel,,,,,,,,,,,,,,,,,,,,,,
Manali,India,32.239633,77.188714,Hotel Ambika,Hotel,,,Location:4.5/5 | Hospitality:0/5 | Facilities:3.5/5 | Cleanliness:3.2/5 | Value for Money:3.8/5 | Food:0/5,,,,,,,,,,,,,,,,,,,
Manali,India,77.182568,32.250097,Hotel Paradise,Hotel,,,Location:3.9/5 | Hospitality:2.6/5 | Facilities:2.6/5 | Cleanliness:2.8/5 | Value for Money:2.6/5 | Food:3.2/5,,,,,,,,,,,,,,,,,,,
Manali,India,32.239633,77.188715,Hotel Whispering Inn,Hotel,,,Location:3.3/5 | Hospitality:3.7/5 | Facilities:2.3/5 | Cleanliness:2.6/5 | Value for Money:3.3/5 | Food:3/5,,,,,,,,,,,,,,,,,,,
Manali,India,32.242202,77.192395,Hotel Beas View,Hotel,,,Location:5/5 | Hospitality:5/5 | Facilities:5/5 | Cleanliness:5/5 | Value for Money:5/5 | Food:5/5,,,,,,,,,,,,,,,,,,,
Manali,India,32.287558,77.175624,Mount Ville Resorts,Hotel,,,Location:5/5 | Hospitality:5/5 | Facilities:5/5 | Cleanliness:5/5 | Value for Money:5/5 | Food:5/5,,,,,,,,,,,,,,,,,,,
Manali,India,32.223725,77.195909,White Mist - A Sterling Holiday Resorts,Hotel,,,Location:4.2/5 | Hospitality:4.5/5 | Facilities:3.9/5 | Cleanliness:4.4/5 | Value for Money:4.5/5 | Food:4.1/5,,,,,,,,,,,,,,,,,,,
Manali,India,32.244913,77.191947,Chandramukhi Cottages,Hotel,,,Location:4.1/5 | Hospitality:4.2/5 | Facilities:4.1/5 | Cleanliness:4/5 | Value for Money:4.2/5 | Food:4.1/5,,,,,,,,,,,,,,,,,,,
Manali,India,32.242599,77.189335,Hotel New Adarsh,Hotel,,,Location:4.3/5 | Hospitality:4.2/5 | Facilities:3.9/5 | Cleanliness:4.1/5 | Value for Money:4.3/5 | Food:3.7/5,,,,,,,,,,,,,,,,,,,
Manali,India,32.137677,77.154644,Hotel Baragarh Regency,Hotel,,,,,,,,,,,,,,,,,,,,,,
Manali,India,32.22734177,77.19717863,Angels Inn,Hotel,,,,,,,,,,,,,,,,,,,,,,
Manali,India,32.246395,77.183468,Shingar Regency,Hotel,,,Location:4.6/5 | Hospitality:4.9/5 | Facilities:4.8/5 | Cleanliness:4.8/5 | Value for Money:4.9/5 | Food:4.8/5,,,,,,,,,,,,,,,,,,,
Manali,India,32.239633,77.188715,Hotel Meridian,Hotel,,,Location:5/5 | Hospitality:0/5 | Facilities:5/5 | Cleanliness:5/5 | Value for Money:4/5 | Food:0/5,,,,,,,,,,,,,,,,,,,
Manali,India,32.22641235,77.18294097,Pause At Manali,Hotel,,,,,,,,,,,,,,,,,,,,,,
Manali,India,32.231753,77.196628,Park Residency Hotel,Hotel,,,Location:3.5/5 | Hospitality:3.8/5 | Facilities:3.1/5 | Cleanliness:4/5 | Value for Money:3.9/5 | Food:3.5/5,,,,,,,,,,,,,,,,,,,
Manali,India,32.217784,77.196709,Manali Retreat by issar,Hotel,,,,,,,,,,,,,,,,,,,,,,
Manali,India,0,0,New Gyespa Hotel Keylong,Hotel,,,,,,,,,,,,,,,,,,,,,,
Manali,India,32.230464,77.187986,Quality Inn & Suites River Country Resort,Hotel,,,Location:4.5/5 | Hospitality:4.8/5 | Facilities:4.5/5 | Cleanliness:4.7/5 | Value for Money:4.6/5 | Food:4.6/5,,,,,,,,,,,,,,,,,,,
Manali,India,32.237633,77.193391,Hotel Century Gangri,Hotel,,,Location:3.4/5 | Hospitality:3.5/5 | Facilities:3.3/5 | Cleanliness:3.2/5 | Value for Money:3.4/5 | Food:0.5/5,,,,,,,,,,,,,,,,,,,
Manali,India,32.254234,77.18094,Hotel Dream Land - River side,Hotel,,,Location:4.3/5 | Hospitality:4.2/5 | Facilities:3.3/5 | Cleanliness:3.5/5 | Value for Money:4/5 | Food:3.6/5,,,,,,,,,,,,,,,,,,,
Manali,India,32.246288,77.182571,Ishaan Resort,Hotel,,,,,,,,,,,,,,,,,,,,,,
Manali,India,32.316479,77.157369,PRIM Resorts - Iceland Manali,Hotel,,,Location:5/5 | Hospitality:4.7/5 | Facilities:4.6/5 | Cleanliness:4.7/5 | Value for Money:4.7/5 | Food:4.7/5,,,,,,,,,,,,,,,,,,,
Manali,India,32.24493348,77.18943183,Hotel Ranika,Hotel,,,,,,,,,,,,,,,,,,,,,,
Manali,India,32.2851,77.1732,Urvashi's Retreat,Hotel,,,,,,,,,,,,,,,,,,,,,,
Manali,India,32.2218,77.1892,Sandhya Resort & Spa,Hotel,,,Location:4.2/5 | Hospitality:4.6/5 | Facilities:4.1/5 | Cleanliness:4.5/5 | Value for Money:4.6/5 | Food:4.3/5,,,,,,,,,,,,,,,,,,,
Manali,India,32.235883,77.195223,Apple Paradise,Hotel,,,Location:4/5 | Hospitality:4/5 | Facilities:3.8/5 | Cleanliness:3.9/5 | Value for Money:3.9/5 | Food:4.2/5,,,,,,,,,,,,,,,,,,,
Manali,India,32.239654,77.188718,The Himalayan Regency,Hotel,,,Location:3.6/5 | Hospitality:3.6/5 | Facilities:3.2/5 | Cleanliness:2.9/5 | Value for Money:3.7/5 | Food:3.7/5,,,,,,,,,,,,,,,,,,,
Manali,India,32.224149,77.184707,Green Cottages,Hotel,,,Location:3.6/5 | Hospitality:3.3/5 | Facilities:3.1/5 | Cleanliness:3.1/5 | Value for Money:3.3/5 | Food:3.3/5,,,,,,,,,,,,,,,,,,,
Manali,India,32.239633,77.188715,Hotel Shanti Kunj,Hotel,,,Location:2.5/5 | Hospitality:2/5 | Facilities:2/5 | Cleanliness:2.5/5 | Value for Money:2/5 | Food:2.5/5,,,,,,,,,,,,,,,,,,,
Manali,India,32.245088,77.191903,Whispering Valley Resort,Hotel,,,Location:3.7/5 | Hospitality:3/5 | Facilities:2.6/5 | Cleanliness:2.3/5 | Value for Money:3/5 | Food:2.3/5,,,,,,,,,,,,,,,,,,,
Manali,India,32.239633,77.188715,Hotel Devi Dyar,Hotel,,,Location:4.2/5 | Hospitality:4.4/5 | Facilities:3.6/5 | Cleanliness:4/5 | Value for Money:4.4/5 | Food:3.8/5,,,,,,,,,,,,,,,,,,,
Manali,India,32.250849,77.173571,SnowCrests Manor,Hotel,,,Location:4.2/5 | Hospitality:3.8/5 | Facilities:4.2/5 | Cleanliness:4.2/5 | Value for Money:4/5 | Food:4.3/5,,,,,,,,,,,,,,,,,,,
Manali,India,32.239651,77.188712,Hotel Ridge View,Hotel,,,Location:3.3/5 | Hospitality:3.7/5 | Facilities:2.7/5 | Cleanliness:4.3/5 | Value for Money:3.7/5 | Food:3/5,,,,,,,,,,,,,,,,,,,
Manali,India,0,0,Hotel Dekyid Keylong,Hotel,,,,,,,,,,,,,,,,,,,,,,
Manali,India,32.25591,77.18578,Treebo Celebriti,Hotel,,,,,,,,,,,,,,,,,,,,,,
Manali,India,32.24827,77.183972,Kapoor Resorts,Hotel,,,Location:4/5 | Hospitality:4/5 | Facilities:3.4/5 | Cleanliness:4/5 | Value for Money:4/5 | Food:3.3/5,,,,,,,,,,,,,,,,,,,
Manali,India,32.239632,77.188714,Hotel Omray,Hotel,,,Location:4/5 | Hospitality:5/5 | Facilities:5/5 | Cleanliness:5/5 | Value for Money:5/5 | Food:5/5,,,,,,,,,,,,,,,,,,,
Manali,India,32.2211,77.1973,Hotel Eco Groves,Hotel,,,Location:5/5 | Hospitality:5/5 | Facilities:5/5 | Cleanliness:5/5 | Value for Money:5/5 | Food:5/5,,,,,,,,,,,,,,,,,,,
Manali,India,32.249336,77.18588,Hotel Manali Mahal,Hotel,,,Location:3.6/5 | Hospitality:3.1/5 | Facilities:2.6/5 | Cleanliness:3/5 | Value for Money:3.1/5 | Food:3/5,,,,,,,,,,,,,,,,,,,
Manali,India,32.23779,77.186406,Hotel Swan,Hotel,,,Location:3.9/5 | Hospitality:2.4/5 | Facilities:2.9/5 | Cleanliness:3.1/5 | Value for Money:2.9/5 | Food:3.2/5,,,,,,,,,,,,,,,,,,,
Manali,India,32.22374,77.189756,Hotel Ashoka Inn,Hotel,,,,,,,,,,,,,,,,,,,,,,
Manali,India,32.246157,77.188489,Hotel Shandela,Hotel,,,Location:5/5 | Hospitality:5/5 | Facilities:4.3/5 | Cleanliness:4.7/5 | Value for Money:5/5 | Food:4.3/5,,,,,,,,,,,,,,,,,,,
Manali,India,32.2472,77.1842,Hotel Mahajan,Hotel,,,,,,,,,,,,,,,,,,,,,,
Manali,India,32.2396,77.1887,Hotel The Valerian,Hotel,,,Location:4.7/5 | Hospitality:4.9/5 | Facilities:4.2/5 | Cleanliness:4.3/5 | Value for Money:4.9/5 | Food:4.1/5,,,,,,,,,,,,,,,,,,,
Manali,India,32.221381,77.191508,The Manali Inn,Hotel,,,Location:4/5 | Hospitality:4/5 | Facilities:3.7/5 | Cleanliness:4.2/5 | Value for Money:4/5 | Food:4.1/5,,,,,,,,,,,,,,,,,,,
Manali,India,32.266701,77.166702,Armaan Inn and Suites,Hotel,,,Location:3.8/5 | Hospitality:3.5/5 | Facilities:3.5/5 | Cleanliness:3.9/5 | Value for Money:3.5/5 | Food:4/5,,,,,,,,,,,,,,,,,,,
Manali,India,32.230536,77.186766,De Ocean inn,Hotel,,,Location:2/5 | Hospitality:2/5 | Facilities:2/5 | Cleanliness:2/5 | Value for Money:2/5 | Food:2/5,,,,,,,,,,,,,,,,,,,
Manali,India,32.247875,77.186384,Hotel Dream,Hotel,,,Location:4.6/5 | Hospitality:4.8/5 | Facilities:4.1/5 | Cleanliness:4.3/5 | Value for Money:4.8/5 | Food:4.3/5,,,,,,,,,,,,,,,,,,,
Manali,India,32.2401494,77.1886733,Shingar Hotel,Hotel,,,,,,,,,,,,,,,,,,,,,,
Manali,India,32.223654,77.200792,Golden Meadows Cottage,Hotel,,,,,,,,,,,,,,,,,,,,,,
Manali,India,32.243405,77.189125,Manali Continental,Hotel,,,,,,,,,,,,,,,,,,,,,,
Manali,India,32.220753,77.188343,Hotel Sitara International,Hotel,,,,,,,,,,,,,,,,,,,,,,
Manali,India,32.25475,77.181914,Riverside Guest House,Hotel,,,,,,,,,,,,,,,,,,,,,,
Manali,India,32.24772543,77.18647898,Hotel Crystal,Hotel,,,,,,,,,,,,,,,,,,,,,,
Manali,India,32.224,77.1782,Kanyal Heights,Hotel,,,,,,,,,,,,,,,,,,,,,,
Manali,India,32.254082,77.180303,Golden Tulip,Hotel,,,,,,,,,,,,,,,,,,,,,,
Manali,India,32.180745,77.195801,Sarthak Resorts,Hotel,,,,,,,,,,,,,,,,,,,,,,
Manali,India,32.239632,77.188713,Him Regency,Hotel,,,,,,,,,,,,,,,,,,,,,,
Coorg,India,0,0,Maracad Estate,Hotel,,,,,,,,,,,,,,,,,,,,,,
Coorg,India,0,0,Anugraha Guesthouse,Hotel,,,,,,,,,,,,,,,,,,,,,,
LonavalaAndKhandala,India,18.750655,73.471899,Sony Palace,Hotel,,,,,,,,,,,,,,,,,,,,,,
Indore,India,0,0,Hotel Dream Palace,Hotel,,,,,,,,,,,,,,,,,,,,,,
WeekendGetawaysAroundMumbai,India,19.8749,75.3656,"Lemon Tree Hotel, Aurangabad",Hotel,,,Location:4.4/5 | Hospitality:4.3/5 | Facilities:4.2/5 | Cleanliness:4.4/5 | Value for Money:4.2/5 | Food:4.1/5,,,,,,,,,,,,,,,,,,,
Chennai,India,13.0766,80.2013,Hotel Shan Royal,Hotel,,,Location:3.9/5 | Hospitality:3.3/5 | Facilities:3.2/5 | Cleanliness:3.2/5 | Value for Money:3.2/5 | Food:3.6/5,,,,,,,,,,,,,,,,,,,
Chennai,India,0,0,Chennai Stays Metro Manor,Hotel,,,,,,,,,,,,,,,,,,,,,,
Alwar,India,27.535543,76.607539,Hive Alwar Managed by Tux Hospitality Pvt. Ltd,Hotel,,,Location:4.1/5 | Hospitality:3.7/5 | Facilities:3.8/5 | Cleanliness:4.2/5 | Value for Money:3.7/5 | Food:4.1/5,,,,,,,,,,,,,,,,,,,
Coorg,India,12.314123,75.887032,The Robusta Zone,Hotel,,,,,,,,,,,,,,,,,,,,,,
Coorg,India,12.424479,75.740258,Misty Green,Hotel,,,,,,,,,,,,,,,,,,,,,,
Chennai,India,13.0202,80.1849,"Lemon Tree Hotel, Shimona, Chennai",Hotel,,,Location:4.6/5 | Hospitality:4.3/5 | Facilities:4.3/5 | Cleanliness:4.7/5 | Value for Money:4.3/5 | Food:4.1/5,,,,,,,,,,,,,,,,,,,
Katihar,India,25.544,87.5725,Hotel Satkar,Hotel,,,Location:4/5 | Hospitality:3/5 | Facilities:2.5/5 | Cleanliness:2/5 | Value for Money:3/5 | Food:2.5/5,,,,,,,,,,,,,,,,,,,
Chennai,India,0,0,Kuber Inn,Hotel,,,,,,,,,,,,,,,,,,,,,,
Chennai,India,13.036567,80.239569,Raj Palace,Hotel,,,Location:4.8/5 | Hospitality:4.3/5 | Facilities:3.8/5 | Cleanliness:4.2/5 | Value for Money:4.2/5 | Food:4/5,,,,,,,,,,,,,,,,,,,
Indore,India,22.717239,75.869372,Hotel Uday Palace,Hotel,,,,,,,,,,,,,,,,,,,,,,
Chennai,India,13.050738,80.250054,Hotel Sonas Inn Chennai,Hotel,,,Location:4.6/5 | Hospitality:3.2/5 | Facilities:2.9/5 | Cleanliness:3.8/5 | Value for Money:3.2/5 | Food:2.5/5,,,,,,,,,,,,,,,,,,,
Chennai,India,13.0256,80.254,Executive Comfort - Mylapore,Hotel,,,,,,,,,,,,,,,,,,,,,,
Joshimath,India,30.5565,79.552,Hotel Dronagiri,Hotel,,,Location:5/5 | Hospitality:4.5/5 | Facilities:4.5/5 | Cleanliness:5/5 | Value for Money:4.5/5 | Food:5/5,,,,,,,,,,,,,,,,,,,
Coorg,India,12.3771,75.7446,Heights Farm Stay,Hotel,,,,,,,,,,,,,,,,,,,,,,
Chennai,India,13.055833,80.211149,Hotel Ambica Empire,Hotel,,,Location:4.5/5 | Hospitality:4/5 | Facilities:4.1/5 | Cleanliness:4.2/5 | Value for Money:3.9/5 | Food:3.8/5,,,,,,,,,,,,,,,,,,,
WeekendGetawaysAroundMumbai,India,18.559993,73.911908,Hyatt Regency Pune,Hotel,,,Location:4.7/5 | Hospitality:4.6/5 | Facilities:4.7/5 | Cleanliness:4.9/5 | Value for Money:4.6/5 | Food:4.6/5,,,,,,,,,,,,,,,,,,,
Coorg,India,0,0,Field View Home Stay,Hotel,,,,,,,,,,,,,,,,,,,,,,
Chennai,India,12.904511,80.230619,Sukruthi Inn,Hotel,,,,,,,,,,,,,,,,,,,,,,
Chennai,India,13.010905,80.215206,Zen Garden Hotel,Hotel,,,Location:3.3/5 | Hospitality:4/5 | Facilities:2.6/5 | Cleanliness:3.1/5 | Value for Money:3.1/5 | Food:2.5/5,,,,,,,,,,,,,,,,,,,
Mandi,India,31.641417,76.944591,Hotel Valley View,Hotel,,,Location:5/5 | Hospitality:3/5 | Facilities:3/5 | Cleanliness:3/5 | Value for Money:3.5/5 | Food:3/5,,,,,,,,,,,,,,,,,,,
Chennai,India,12.817912,80.222147,Brick Field Suites Serviced Apartment,Hotel,,,,,,,,,,,,,,,,,,,,,,
Guruvayoor,India,10.595977,76.048868,Krishna Regencey,Hotel,,,Location:4.7/5 | Hospitality:4/5 | Facilities:4/5 | Cleanliness:5/5 | Value for Money:4/5 | Food:3/5,,,,,,,,,,,,,,,,,,,
Coorg,India,0,0,Royal Woods Estate,Hotel,,,,,,,,,,,,,,,,,,,,,,
Guhagar,India,17.482887,73.192486,Osari Homestay,Hotel,,,,,,,,,,,,,,,,,,,,,,
Chennai,India,0,0,Trusted Stay Service Apartment T Nagar,Hotel,,,,,,,,,,,,,,,,,,,,,,
Chennai,India,13.033111,80.182396,Royal Residency,Hotel,,,Location:3.7/5 | Hospitality:3.2/5 | Facilities:3.3/5 | Cleanliness:3.8/5 | Value for Money:3.2/5 | Food:3.2/5,,,,,,,,,,,,,,,,,,,
Gaya,India,24.804,85.0013,Orbit Hotel,Hotel,,,Location:4.1/5 | Hospitality:3.4/5 | Facilities:3.2/5 | Cleanliness:3.4/5 | Value for Money:3.4/5 | Food:3.1/5,,,,,,,,,,,,,,,,,,,
Chennai,India,0,0,Darshini residency,Hotel,,,,,,,,,,,,,,,,,,,,,,
Ganpatipule,India,17.148866,73.272695,Hotel Siddhi palace,Hotel,,,Location:5/5 | Hospitality:3/5 | Facilities:3/5 | Cleanliness:3/5 | Value for Money:3/5 | Food:4/5,,,,,,,,,,,,,,,,,,,
LonavalaAndKhandala,India,18.757276,73.412707,Hotel Kadamb Sahyadri,Hotel,,,,,,,,,,,,,,,,,,,,,,
Chennai,India,12.989504,80.259933,Hotel Centre Point,Hotel,,,Location:4.6/5 | Hospitality:4.3/5 | Facilities:3.9/5 | Cleanliness:4.5/5 | Value for Money:4.3/5 | Food:3.9/5,,,,,,,,,,,,,,,,,,,
Coorg,India,12.448646,75.937153,The Casiita,Hotel,,,Location:4.1/5 | Hospitality:3.3/5 | Facilities:3.1/5 | Cleanliness:3.4/5 | Value for Money:3.3/5 | Food:2/5,,,,,,,,,,,,,,,,,,,
LonavalaAndKhandala,India,18.774094,73.394701,Orchard Resort,Hotel,,,Location:3.7/5 | Hospitality:4.2/5 | Facilities:3.9/5 | Cleanliness:4.1/5 | Value for Money:4.2/5 | Food:4.1/5,,,,,,,,,,,,,,,,,,,
Indore,India,22.7544,75.9037,Gurukul Accomodation,Hotel,,,,,,,,,,,,,,,,,,,,,,
WeekendGetawaysAroundMumbai,India,19.769196,74.476067,Shraddha Sarovar Portico,Hotel,,,Location:4.3/5 | Hospitality:4.2/5 | Facilities:4.1/5 | Cleanliness:4.4/5 | Value for Money:4.1/5 | Food:3.9/5,,,,,,,,,,,,,,,,,,,
Ganpatipule,India,17.149588,73.273366,Center Point Residency,Hotel,,,,,,,,,,,,,,,,,,,,,,
Indore,India,22.712397,75.921395,Hotel Signature,Hotel,,,,,,,,,,,,,,,,,,,,,,
Chennai,India,13.065744,80.211649,Majestic Manor,Hotel,,,Location:4/5 | Hospitality:4.5/5 | Facilities:4/5 | Cleanliness:4.5/5 | Value for Money:4.5/5 | Food:4.5/5,,,,,,,,,,,,,,,,,,,
Coorg,India,0,0,DRL Homestay,Hotel,,,,,,,,,,,,,,,,,,,,,,
Coorg,India,12.431948,75.724423,Thimaiah Homestay,Hotel,,,,,,,,,,,,,,,,,,,,,,
Nellore,India,14.2861,80.0975,Krishnapatnam Grand Inn,Hotel,,,Location:3/5 | Hospitality:4/5 | Facilities:3.5/5 | Cleanliness:4/5 | Value for Money:4/5 | Food:3.5/5,,,,,,,,,,,,,,,,,,,
Chennai,India,13.0146,80.23,Executive Comfort - Guindy,Hotel,,,,,,,,,,,,,,,,,,,,,,
Coorg,India,0,0,Divine Homestay,Hotel,,,,,,,,,,,,,,,,,,,,,,
Chennai,India,13.065676,80.210613,Amrita Inn,Hotel,,,,,,,,,,,,,,,,,,,,,,
LonavalaAndKhandala,India,18.753854,73.405268,Hotel Lonavla,Hotel,,,,,,,,,,,,,,,,,,,,,,
Chandigarh,India,0,0,hotel Golden palace,Hotel,,,,,,,,,,,,,,,,,,,,,,
Coorg,India,0,0,Coorg Glade Home Stay,Hotel,,,,,,,,,,,,,,,,,,,,,,
Chennai,India,12.960825,80.261386,Hotel Masa Guest House,Hotel,,,Location:4.4/5 | Hospitality:3.2/5 | Facilities:2.8/5 | Cleanliness:2.9/5 | Value for Money:3.1/5 | Food:3/5,,,,,,,,,,,,,,,,,,,
Roorkee,India,29.8644,77.8897,Hotel Prem Dynasty Roorkee,Hotel,,,,,,,,,,,,,,,,,,,,,,
Chennai,India,13.0385,80.2582,Hotel Ekaana Cottage,Hotel,,,Location:4.2/5 | Hospitality:3/5 | Facilities:3.6/5 | Cleanliness:3.1/5 | Value for Money:4/5 | Food:2.2/5,,,,,,,,,,,,,,,,,,,
Guruvayoor,India,10.595283,76.035654,SFS Homebridge,Hotel,,,Location:4.9/5 | Hospitality:4.8/5 | Facilities:4.8/5 | Cleanliness:5/5 | Value for Money:4.8/5 | Food:4/5,,,,,,,,,,,,,,,,,,,
Coorg,India,12.424421,75.738186,Aahan Hills Cottage,Hotel,,,,,,,,,,,,,,,,,,,,,,
Madhubani,India,26.3559,86.072,Hotel DG,Hotel,,,,,,,,,,,,,,,,,,,,,,
Chennai,India,12.964253,80.147368,Raaj Residency,Hotel,,,Location:4.6/5 | Hospitality:4.5/5 | Facilities:4.2/5 | Cleanliness:4.3/5 | Value for Money:4.5/5 | Food:2.5/5,,,,,,,,,,,,,,,,,,,
Kottayam,India,9.670271,76.566278,Raisun Houseboat,Hotel,,,,,,,,,,,,,,,,,,,,,,
Coorg,India,12.452517,75.829144,Vaishnavi,Hotel,,,,,,,,,,,,,,,,,,,,,,
Chennai,India,0,0,Purple Inn,Hotel,,,,,,,,,,,,,,,,,,,,,,
Indore,India,22.717837,75.878762,The Rajshahi Palace,Hotel,,,Location:2.6/5 | Hospitality:3.5/5 | Facilities:2.8/5 | Cleanliness:3.2/5 | Value for Money:3.2/5 | Food:4.5/5,,,,,,,,,,,,,,,,,,,
Kottayam,India,0,0,Manjapu Residency,Hotel,,,,,,,,,,,,,,,,,,,,,,
Coorg,India,0,0,Rolling Meadows,Hotel,,,,,,,,,,,,,,,,,,,,,,
Chennai,India,13.05862,80.263982,E Hotel,Hotel,,,Location:4.7/5 | Hospitality:4.3/5 | Facilities:4.2/5 | Cleanliness:4.6/5 | Value for Money:4.3/5 | Food:3.8/5,,,,,,,,,,,,,,,,,,,
Kottayam,India,9.588611,76.521111,Puthookkadan's Orchid Residency,Hotel,,,Location:4.1/5 | Hospitality:3.9/5 | Facilities:3.7/5 | Cleanliness:3.9/5 | Value for Money:3.7/5 | Food:3.2/5,,,,,,,,,,,,,,,,,,,
Ganpatipule,India,17.142773,73.269626,Hotel Atithi Lodge,Lodge,,,Location:5/5 | Hospitality:5/5 | Facilities:5/5 | Cleanliness:5/5 | Value for Money:5/5 | Food:5/5,,,,,,,,,,,,,,,,,,,
Coorg,India,12.452591,75.829425,Coorg Gateways,Hotel,,,,,,,,,,,,,,,,,,,,,,
Chennai,India,13.063692,80.210806,Hotel Atchaya,Hotel,,,Location:3.4/5 | Hospitality:3.3/5 | Facilities:3.4/5 | Cleanliness:3.1/5 | Value for Money:3.4/5 | Food:3/5,,,,,,,,,,,,,,,,,,,
Alwar,India,27.494629,76.600131,Hotel Burja Haveli,Hotel,,,Location:5/5 | Hospitality:5/5 | Facilities:5/5 | Cleanliness:5/5 | Value for Money:5/5 | Food:5/5,,,,,,,,,,,,,,,,,,,
Kottayam,India,9.588529,76.536297,The Chrysoberyl Hotel and Convention Centre,Hotel,,,Location:4.8/5 | Hospitality:4.6/5 | Facilities:4.8/5 | Cleanliness:4.8/5 | Value for Money:4.6/5 | Food:3.8/5,,,,,,,,,,,,,,,,,,,
Coorg,India,12.482309,75.879981,River Touch Cottages,Hotel,,,,,,,,,,,,,,,,,,,,,,
Chennai,India,12.990884,80.24259,Ginger Hotel - Chennai,Hotel,,,Location:3.4/5 | Hospitality:4.1/5 | Facilities:3.8/5 | Cleanliness:4.2/5 | Value for Money:4/5 | Food:3.1/5,,,,,,,,,,,,,,,,,,,
Mandi,India,0,0,Hotel Sally,Hotel,,,,,,,,,,,,,,,,,,,,,,
Chandigarh,India,0,0,Hotel Ocean,Hotel,,,,,,,,,,,,,,,,,,,,,,
Godda,India,0,0,Anjana Hotel,Hotel,,,,,,,,,,,,,,,,,,,,,,
Ganpatipule,India,17.209553,73.249261,Arnav Resort,Hotel,,,,,,,,,,,,,,,,,,,,,,
Guruvayoor,India,10.595724,76.043854,KTDC Tamarind Guruvayur,Hotel,,,Location:5/5 | Hospitality:5/5 | Facilities:4/5 | Cleanliness:5/5 | Value for Money:5/5 | Food:4/5,,,,,,,,,,,,,,,,,,,
Alwar,India,27.459366,76.543956,Hotel Alwar Bagh Sariska By Aamod,Hotel,,,Location:4/5 | Hospitality:3.7/5 | Facilities:3.3/5 | Cleanliness:3.3/5 | Value for Money:3.7/5 | Food:4.3/5,,,,,,,,,,,,,,,,,,,
Chandigarh,India,30.721661,76.771262,Hotel Antheia,Hotel,,,Location:4/5 | Hospitality:3.7/5 | Facilities:2.7/5 | Cleanliness:3.3/5 | Value for Money:3.7/5 | Food:3.4/5,,,,,,,,,,,,,,,,,,,
Kottayam,India,9.63365,76.4795,GKs Riverview Homestay,Hotel,,,,,,,,,,,,,,,,,,,,,,
Guhagar,India,0,0,Musale Hotel,Hotel,,,,,,,,,,,,,,,,,,,,,,
Coorg,India,0,0,Jungle Mount Adventures Camp,Hotel,,,,,,,,,,,,,,,,,,,,,,
Sirsa,India,29.4709,75.0757,SMG Resort,Hotel,,,Location:5/5 | Hospitality:5/5 | Facilities:5/5 | Cleanliness:5/5 | Value for Money:5/5 | Food:5/5,,,,,,,,,,,,,,,,,,,
Chandigarh,India,30.72042,76.758295,Hotel Welcome Residency,Hotel,,,,,,,,,,,,,,,,,,,,,,
Chennai,India,12.97131402,80.15036732,Hotel Mars Deluxe,Hotel,,,,,,,,,,,,,,,,,,,,,,
Chennai,India,13.036401,80.156645,Chennai Le Palace,Hotel,,,,,,,,,,,,,,,,,,,,,,
Sirsa,India,29.523431,75.033556,Hotel Solitaire Grand,Hotel,,,,,,,,,,,,,,,,,,,,,,
Bhusawal,India,21.042301,75.813301,Palkhi,Hotel,,,,,,,,,,,,,,,,,,,,,,
Indore,India,22.718023,75.874756,Balwas International,Hotel,,,,,,,,,,,,,,,,,,,,,,
Chennai,India,0,0,Vijay Residency,Hotel,,,,,,,,,,,,,,,,,,,,,,
WeekendGetawaysAroundMumbai,India,15.499878,73.833479,Park Prime - Goa,Hotel,,,Location:4.3/5 | Hospitality:4.2/5 | Facilities:3.9/5 | Cleanliness:4.1/5 | Value for Money:3.9/5 | Food:3.8/5,,,,,,,,,,,,,,,,,,,
Bareilley,India,28.384983,79.432354,Geet Hotel,Hotel,,,,,,,,,,,,,,,,,,,,,,
Indore,India,22.71335,75.873298,Hotel Mehar Residency,Hotel,,,,,,,,,,,,,,,,,,,,,,
LonavalaAndKhandala,India,18.753092,73.410193,Citrus Resort,Hotel,,,Location:3.9/5 | Hospitality:4.4/5 | Facilities:4/5 | Cleanliness:4.4/5 | Value for Money:4.2/5 | Food:4.2/5,,,,,,,,,,,,,,,,,,,
Kottayam,India,9.571728,76.518936,TheWindsor Castle,Hotel,,,Location:4.3/5 | Hospitality:3/5 | Facilities:3.2/5 | Cleanliness:3.8/5 | Value for Money:3/5 | Food:3/5,,,,,,,,,,,,,,,,,,,
EastSikkim,India,0,0,Singdan Homestay,Hotel,,,,,,,,,,,,,,,,,,,,,,
Chennai,India,0,0,Executive Comfort UNA Xpress Alwarpet,Hotel,,,,,,,,,,,,,,,,,,,,,,
Chennai,India,13.054541,80.253119,Century Residency,Hotel,,,,,,,,,,,,,,,,,,,,,,
Coorg,India,0,0,Orchid Homestay,Hotel,,,,,,,,,,,,,,,,,,,,,,
WeekendGetawaysAroundMumbai,India,18.541118,73.887157,Park Central Comfort-E-Suites,Hotel,,,Location:4.1/5 | Hospitality:4.6/5 | Facilities:4.2/5 | Cleanliness:4.4/5 | Value for Money:4.4/5 | Food:4.4/5,,,,,,,,,,,,,,,,,,,
Indore,India,22.750669,75.913141,Sky Hotel,Hotel,,,Location:4/5 | Hospitality:2/5 | Facilities:2/5 | Cleanliness:2.5/5 | Value for Money:2/5 | Food:2/5,,,,,,,,,,,,,,,,,,,
Chennai,India,13.034788,80.237807,Sakithyan,Hotel,,,Location:4/5 | Hospitality:0/5 | Facilities:3/5 | Cleanliness:2/5 | Value for Money:1/5 | Food:0/5,,,,,,,,,,,,,,,,,,,
WeekendGetawaysAroundMumbai,India,19.076412,72.842317,Hotel Aarya International,Hotel,,,Location:3.8/5 | Hospitality:3.7/5 | Facilities:3.4/5 | Cleanliness:3.6/5 | Value for Money:3.7/5 | Food:2.9/5,,,,,,,,,,,,,,,,,,,
Chennai,India,13.081898,80.187953,Saaral Residency,Hotel,,,Location:4.2/5 | Hospitality:3.8/5 | Facilities:3.8/5 | Cleanliness:4.2/5 | Value for Money:3.8/5 | Food:4/5,,,,,,,,,,,,,,,,,,,
Guruvayoor,India,10.592584,76.037576,Mayura Residency,Hotel,,,Location:4.6/5 | Hospitality:4.6/5 | Facilities:4.1/5 | Cleanliness:4.1/5 | Value for Money:4.5/5 | Food:4.2/5,,,,,,,,,,,,,,,,,,,
Coorg,India,0,0,Hotel Mayflower Stay,Hotel,,,,,,,,,,,,,,,,,,,,,,
Coorg,India,12.415003,75.746227,Prestige Residency,Hotel,,,Location:4.5/5 | Hospitality:3.9/5 | Facilities:3.4/5 | Cleanliness:3.6/5 | Value for Money:3.9/5 | Food:4/5,,,,,,,,,,,,,,,,,,,
Roorkee,India,29.863927,77.889887,Motel Divine International Roorkee,Hotel,,,Location:4.8/5 | Hospitality:4.2/5 | Facilities:3.2/5 | Cleanliness:4.6/5 | Value for Money:4.2/5 | Food:4.2/5,,,,,,,,,,,,,,,,,,,
Mandi,India,0,0,Spehni Top Camp,Hotel,,,,,,,,,,,,,,,,,,,,,,
Kabini,India,11.696723,76.641566,The Serai - Bandipur,Hotel,,,Location:4.6/5 | Hospitality:4.8/5 | Facilities:4.8/5 | Cleanliness:5/5 | Value for Money:4.7/5 | Food:4.5/5,,,,,,,,,,,,,,,,,,,
Coorg,India,0,0,Hotel Mist Flower Residency,Hotel,,,Location:2/5 | Hospitality:2/5 | Facilities:2/5 | Cleanliness:2/5 | Value for Money:2/5 | Food:2/5,,,,,,,,,,,,,,,,,,,
Coorg,India,12.310488,75.774763,Coorg Karishma,Hotel,,,,,,,,,,,,,,,,,,,,,,
Chennai,India,0,0,Kapsstone Corporate Residency Nugambakkam,Hotel,,,,,,,,,,,,,,,,,,,,,,
Indore,India,22.726911,75.880443,Hotel Apna Avenue,Hotel,,,Location:4.6/5 | Hospitality:4.3/5 | Facilities:3.9/5 | Cleanliness:4.2/5 | Value for Money:4/5 | Food:4/5,,,,,,,,,,,,,,,,,,,
Chandigarh,India,30.725144,76.765755,Maya Hotel,Hotel,,,Location:4.2/5 | Hospitality:4.3/5 | Facilities:3.9/5 | Cleanliness:4.4/5 | Value for Money:3.9/5 | Food:4.1/5,,,,,,,,,,,,,,,,,,,
Chennai,India,13.063,80.274,Hotel Comfort,Hotel,,,Location:3.9/5 | Hospitality:3.5/5 | Facilities:3.6/5 | Cleanliness:3.8/5 | Value for Money:3.6/5 | Food:3.6/5,,,,,,,,,,,,,,,,,,,
Mirik,India,0,0,SUNAKHARI HOMESTAY,Hotel,,,,,,,,,,,,,,,,,,,,,,
Joshimath,India,30.5566,79.5551,Hotel Malari Inn,Hotel,,,,,,,,,,,,,,,,,,,,,,
Coorg,India,12.4809,75.7336,Shangri La,Hotel,,,,,,,,,,,,,,,,,,,,,,
Chennai,India,13.040709,80.24372,The Residency Towers,Hotel,,,Location:4.6/5 | Hospitality:4.4/5 | Facilities:4.3/5 | Cleanliness:4.4/5 | Value for Money:4.3/5 | Food:4.2/5,,,,,,,,,,,,,,,,,,,
WeekendGetawaysAroundMumbai,India,15.365253,73.851161,Stonewater Eco Resort,Hotel,,,Location:3.6/5 | Hospitality:3.2/5 | Facilities:3.2/5 | Cleanliness:4.4/5 | Value for Money:3.2/5 | Food:3.2/5,,,,,,,,,,,,,,,,,,,
Chennai,India,13.085609,80.276125,Samudra Residency,Hotel,,,Location:4/5 | Hospitality:4/5 | Facilities:3.7/5 | Cleanliness:3.8/5 | Value for Money:4.1/5 | Food:2.5/5,,,,,,,,,,,,,,,,,,,
Chennai,India,0,0,YWCA International Guest House,Hotel,,,,,,,,,,,,,,,,,,,,,,
Chennai,India,13.0144,80.2465,Bhuvi Service Apartment Velacherry,Hotel,,,,,,,,,,,,,,,,,,,,,,
Coorg,India,12.349295,75.641758,Cloud Valley,Hotel,,,,,,,,,,,,,,,,,,,,,,
Coorg,India,0,0,Sangeet Homestay,Hotel,,,,,,,,,,,,,,,,,,,,,,
Kottayam,India,9.582685,76.518071,Hotel Day Springs executive room,Hotel,,,Location:3.4/5 | Hospitality:3.4/5 | Facilities:3/5 | Cleanliness:3.4/5 | Value for Money:3.4/5 | Food:2.4/5,,,,,,,,,,,,,,,,,,,
Nellore,India,,,D R Utthama Hotel,Hotel,,,,,,,,,,,,,,,,,,,,,,
Chandigarh,India,30.693756,76.733178,The Majestic,Hotel,,,Location:3/5 | Hospitality:2/5 | Facilities:2/5 | Cleanliness:3/5 | Value for Money:2/5 | Food:2/5,,,,,,,,,,,,,,,,,,,
Coorg,India,11.971079,76.056685,Tamara Homestay,Hotel,,,,,,,,,,,,,,,,,,,,,,
Chennai,India,13.035748,80.246115,Ibis Chennai City Centre,Hotel,,,,,,,,,,,,,,,,,,,,,,
Chennai,India,12.965866,80.14901,Royal Chennai Residency-Pallavaram,Hotel,,,Location:4/5 | Hospitality:4.2/5 | Facilities:3.9/5 | Cleanliness:4.3/5 | Value for Money:4.2/5 | Food:3.7/5,,,,,,,,,,,,,,,,,,,
Indore,India,22.725264,75.884699,Hotel Sapphire Star,Hotel,,,Location:4.8/5 | Hospitality:4.3/5 | Facilities:4.3/5 | Cleanliness:4.6/5 | Value for Money:4.3/5 | Food:4.1/5,,,,,,,,,,,,,,,,,,,
Bhimtal,India,29.33871,79.560906,V Resorts Monolith Bhimtal,Hotel,,,Location:4/5 | Hospitality:3.5/5 | Facilities:2/5 | Cleanliness:1/5 | Value for Money:3.5/5 | Food:4/5,,,,,,,,,,,,,,,,,,,
Joshimath,India,30.557034,79.558204,Heritage Camp,Hotel,,,,,,,,,,,,,,,,,,,,,,
Chennai,India,12.978316,80.253731,The Palm Service Apartment Thiruvanmiyur,Hotel,,,,,,,,,,,,,,,,,,,,,,
Chennai,India,13.0639,80.2769,CN Guest House,Hotel,,,,,,,,,,,,,,,,,,,,,,
Coorg,India,12.092285,76.022558,Hotel Green Valley,Hotel,,,,,,,,,,,,,,,,,,,,,,
WeekendGetawaysAroundMumbai,India,19.120299,72.88178,Landmark Suites,Hotel,,,Location:3.7/5 | Hospitality:3.3/5 | Facilities:3.2/5 | Cleanliness:3.7/5 | Value for Money:3.3/5 | Food:2.6/5,,,,,,,,,,,,,,,,,,,
Chennai,India,13.050407,80.248825,Hotel Gemini Inn,Hotel,,,Location:4.2/5 | Hospitality:3.6/5 | Facilities:2.8/5 | Cleanliness:3/5 | Value for Money:3.5/5 | Food:2.8/5,,,,,,,,,,,,,,,,,,,
LonavalaAndKhandala,India,0,0,Mahavira Bunglow 2,Hotel,,,,,,,,,,,,,,,,,,,,,,
Coorg,India,0,0,Chandappa Homestay,Hotel,,,,,,,,,,,,,,,,,,,,,,
Rajahmundry,India,16.488064,81.806644,Palavelli Boutique Resorts 60 Kms from Rajahmundry,Hotel,,,Location:4/5 | Hospitality:3/5 | Facilities:3/5 | Cleanliness:4/5 | Value for Money:3/5 | Food:3/5,,,,,,,,,,,,,,,,,,,
Coorg,India,0,0,Karani Homestay,Hotel,,,,,,,,,,,,,,,,,,,,,,
Coorg,India,12.212,75.7094,Keemale,Hotel,,,,,,,,,,,,,,,,,,,,,,
Ramgarh,India,0,0,Hotel Ramgarh Fresco,Hotel,,,,,,,,,,,,,,,,,,,,,,
Bhimtal,India,29.341696,79.557365,"Hotel Lake Inn, Bhimtal 20 Kms from Nainital",Hotel,,,Location:4.2/5 | Hospitality:4.1/5 | Facilities:3.5/5 | Cleanliness:3.9/5 | Value for Money:4/5 | Food:4/5,,,,,,,,,,,,,,,,,,,
Chennai,India,0,0,Executive Comfort UNA Xpress Mylapore,Hotel,,,,,,,,,,,,,,,,,,,,,,
Chandigarh,India,0,0,Hotel Mahak Palace,Hotel,,,,,,,,,,,,,,,,,,,,,,
WeekendGetawaysAroundMumbai,India,18.753211,73.405915,The Adarsh Hotel,Hotel,,,Location:4.2/5 | Hospitality:4/5 | Facilities:3.3/5 | Cleanliness:3.6/5 | Value for Money:3.7/5 | Food:3.4/5,,,,,,,,,,,,,,,,,,,
Kottayam,India,0,0,Souparnika Heritage Home,Hotel,,,,,,,,,,,,,,,,,,,,,,
Kottayam,India,0,0,Parakkat Houseboat,Hotel,,,,,,,,,,,,,,,,,,,,,,
Chennai,India,0,0,Vatchala Service Apartments Arumbakkam,Hotel,,,,,,,,,,,,,,,,,,,,,,
Guruvayoor,India,10.5958,76.0401,The Vyshakh,Hotel,,,Location:5/5 | Hospitality:4.5/5 | Facilities:4.5/5 | Cleanliness:5/5 | Value for Money:4.5/5 | Food:5/5,,,,,,,,,,,,,,,,,,,
Chennai,India,13.041185,80.235728,Saravana Lodge,Lodge,,,,,,,,,,,,,,,,,,,,,,
Chennai,India,12.73836,80.00229,Holiday Inn Express Chennai Mahindra World City,Hotel,,,Location:4.7/5 | Hospitality:4.7/5 | Facilities:4.5/5 | Cleanliness:4.7/5 | Value for Money:4.7/5 | Food:4/5,,,,,,,,,,,,,,,,,,,
Roorkee,India,29.874414,77.876615,Hotel Deep Residency,Hotel,,,,,,,,,,,,,,,,,,,,,,
Coorg,India,0,0,ESHWARI INN HOMESTAY,Hotel,,,,,,,,,,,,,,,,,,,,,,
Coorg,India,0,0,Thaila Village Homestay,Hotel,,,,,,,,,,,,,,,,,,,,,,
WeekendGetawaysAroundMumbai,India,15.397848,73.814059,La Paz Gardens,Hotel,,,Location:4.3/5 | Hospitality:4.2/5 | Facilities:4.2/5 | Cleanliness:4.1/5 | Value for Money:4.2/5 | Food:3.9/5,,,,,,,,,,,,,,,,,,,
LonavalaAndKhandala,India,28.75562,77.190914,Hotel La Exotica,Hotel,,,Location:2.2/5 | Hospitality:3.3/5 | Facilities:2.6/5 | Cleanliness:2.2/5 | Value for Money:2.2/5 | Food:2.7/5,,,,,,,,,,,,,,,,,,,
Chennai,India,12.9613,80.1463,Arasan Inn,Hotel,,,Location:4.4/5 | Hospitality:4.1/5 | Facilities:3.6/5 | Cleanliness:3.7/5 | Value for Money:4.1/5 | Food:2.7/5,,,,,,,,,,,,,,,,,,,
Katihar,India,25.554638,87.5582886,Hotel JMD International,Hotel,,,,,,,,,,,,,,,,,,,,,,
Coorg,India,12.183231,75.832593,Ambatty Greens Resort,Hotel,,,Location:4.1/5 | Hospitality:4.7/5 | Facilities:4.3/5 | Cleanliness:4.6/5 | Value for Money:4.3/5 | Food:3.8/5,,,,,,,,,,,,,,,,,,,
LonavalaAndKhandala,India,18.748586,73.407614,Hotel Rajdhani - Pure Veg,Hotel,,,Location:3.2/5 | Hospitality:3/5 | Facilities:2.2/5 | Cleanliness:2.4/5 | Value for Money:2.4/5 | Food:1.1/5,,,,,,,,,,,,,,,,,,,
Chennai,India,13.040215,80.245109,Grand by GRT hotels,Hotel,,,Location:4.5/5 | Hospitality:4.5/5 | Facilities:4.4/5 | Cleanliness:4.4/5 | Value for Money:4.4/5 | Food:4.4/5,,,,,,,,,,,,,,,,,,,
Coorg,India,0,0,Karekoppa Homestay,Hotel,,,,,,,,,,,,,,,,,,,,,,
Coorg,India,12.45912224,75.95973015,Coorg Halli Mane- A Water Park Holiday Home,Hotel,,,Location:2.6/5 | Hospitality:2/5 | Facilities:2.6/5 | Cleanliness:2.6/5 | Value for Money:3/5 | Food:2/5,,,,,,,,,,,,,,,,,,,
LonavalaAndKhandala,India,18.747119,73.393298,Villa San Lawrenz,Hotel,,,Location:4.8/5 | Hospitality:4.3/5 | Facilities:4.5/5 | Cleanliness:4.8/5 | Value for Money:4.3/5 | Food:4/5,,,,,,,,,,,,,,,,,,,
Coorg,India,0,0,Coorg Nest Homestay,Hotel,,,,,,,,,,,,,,,,,,,,,,
Chennai,India,0,0,Vatchala Service Apartments Anna Nagar West,Hotel,,,,,,,,,,,,,,,,,,,,,,
Coorg,India,0,0,Bare Homestay,Hotel,,,,,,,,,,,,,,,,,,,,,,
Chennai,India,12.890549,80.230188,Dream Inn Serviced Apartment Sholinganallur,Hotel,,,Location:2/5 | Hospitality:2/5 | Facilities:2/5 | Cleanliness:2/5 | Value for Money:2/5 | Food:2/5,,,,,,,,,,,,,,,,,,,
Shahdol,India,23.29553873,81.40398542,Hotel Kundan Kings,Hotel,,,,,,,,,,,,,,,,,,,,,,
Chennai,India,13.053469,80.269475,Tri Sea Residency,Hotel,,,Location:4.2/5 | Hospitality:3.7/5 | Facilities:3.6/5 | Cleanliness:3.6/5 | Value for Money:3.9/5 | Food:3.7/5,,,,,,,,,,,,,,,,,,,
Coorg,India,0,0,Bean Blossom Estate Stay,Hotel,,,,,,,,,,,,,,,,,,,,,,
Chennai,India,12.989105,80.255389,The City Manor,Hotel,,,Location:4.2/5 | Hospitality:3.3/5 | Facilities:2.9/5 | Cleanliness:3.5/5 | Value for Money:3.3/5 | Food:2.6/5,,,,,,,,,,,,,,,,,,,
Ganpatipule,India,17.151373,73.271761,Hotel Disha Residency,Hotel,,,Location:3.7/5 | Hospitality:4.3/5 | Facilities:2.7/5 | Cleanliness:3/5 | Value for Money:4.3/5 | Food:2.7/5,,,,,,,,,,,,,,,,,,,
Alwar,India,27.550471,76.610251,Hotel Yuvraj Kothi Rao,Hotel,,,Location:4.5/5 | Hospitality:2/5 | Facilities:2/5 | Cleanliness:2.5/5 | Value for Money:2/5 | Food:2/5,,,,,,,,,,,,,,,,,,,
Kalpa,India,31.539427,78.251139,Hotel Aucktong,Hotel,,,,,,,,,,,,,,,,,,,,,,
Ganpatipule,India,17.149976,73.27253,Yash Garden,Hotel,,,Location:3.7/5 | Hospitality:3.3/5 | Facilities:2.9/5 | Cleanliness:3.1/5 | Value for Money:3.3/5 | Food:2.9/5,,,,,,,,,,,,,,,,,,,
Chennai,India,13.036236,80.153765,Udayam Towers,Hotel,,,,,,,,,,,,,,,,,,,,,,
Bhusawal,India,21.038677,75.779305,HOTEL HEAVEN BHUSAWAL,Hotel,,,,,,,,,,,,,,,,,,,,,,
Coorg,India,12.424422,75.738185,House on the Rock,Hotel,,,,,,,,,,,,,,,,,,,,,,
Kabini,India,11.927344,76.266032,Orange County Resort-Kabini,Hotel,,,Location:4.9/5 | Hospitality:5/5 | Facilities:4.9/5 | Cleanliness:5/5 | Value for Money:4.9/5 | Food:5/5,,,,,,,,,,,,,,,,,,,
EastSikkim,India,27.298535,88.817202,Gnathang Residency,Hotel,,,,,,,,,,,,,,,,,,,,,,
Kottayam,India,0,0,White Rose Houseboat,Hotel,,,,,,,,,,,,,,,,,,,,,,
WeekendGetawaysAroundMumbai,India,19.01705,72.84459,Ramee Guestline Dadar,Hotel,,,Location:4.4/5 | Hospitality:3.9/5 | Facilities:3.8/5 | Cleanliness:3.8/5 | Value for Money:4.1/5 | Food:3.8/5,,,,,,,,,,,,,,,,,,,
Mayiladuthurai,India,11.099305,79.652571,Million Day Hotel,Hotel,,,Location:4.5/5 | Hospitality:4/5 | Facilities:3.8/5 | Cleanliness:4.5/5 | Value for Money:4/5 | Food:3.5/5,,,,,,,,,,,,,,,,,,,
Nagaur,India,0,0,Urban Hermitage,Hotel,,,,,,,,,,,,,,,,,,,,,,
Ramgarh,India,29.440056,79.561486,The Peaches,Hotel,,,,,,,,,,,,,,,,,,,,,,
Coorg,India,0,0,High Falls,Hotel,,,,,,,,,,,,,,,,,,,,,,
Gaya,India,0,0,Pankaj Hotel,Hotel,,,Location:3/5 | Hospitality:4/5 | Facilities:4/5 | Cleanliness:4/5 | Value for Money:4/5 | Food:2/5,,,,,,,,,,,,,,,,,,,
Chennai,India,13.0463,80.2464,R J Residency,Hotel,,,Location:3.1/5 | Hospitality:3.2/5 | Facilities:3/5 | Cleanliness:3.8/5 | Value for Money:3.3/5 | Food:2.3/5,,,,,,,,,,,,,,,,,,,
Jammu,India,32.730867,74.863231,Hotel Park View,Hotel,,,,,,,,,,,,,,,,,,,,,,
Bangalore,India,12.976592,77.575953,Canary Sapphire,Hotel,,,Location:3.6/5 | Hospitality:3.7/5 | Facilities:3.6/5 | Cleanliness:4.2/5 | Value for Money:3.8/5 | Food:3.5/5,,,,,,,,,,,,,,,,,,,
Hosur,India,12.727042,77.853186,Hotel Claresta,Hotel,,,,,,,,,,,,,,,,,,,,,,
Cochin,India,9.971506,76.32447,Hotel Mermaid,Hotel,,,Location:3.6/5 | Hospitality:2.8/5 | Facilities:3/5 | Cleanliness:2.9/5 | Value for Money:2.9/5 | Food:3/5,,,,,,,,,,,,,,,,,,,
LonavalaAndKhandala,India,0,0,Leela Villa,Hotel,,,,,,,,,,,,,,,,,,,,,,
Rewa,India,24.5467036,81.3039431,VISHNU VILAS,Hotel,,,,,,,,,,,,,,,,,,,,,,
Jhansi,India,25.4545,78.5405,Hotel Nand Palace,Hotel,,,Location:3/5 | Hospitality:3/5 | Facilities:2/5 | Cleanliness:3/5 | Value for Money:3/5 | Food:2/5,,,,,,,,,,,,,,,,,,,
Bangalore,India,12.890049,77.639786,Hotel Ekaa,Hotel,,,Location:4.3/5 | Hospitality:4.1/5 | Facilities:4.1/5 | Cleanliness:4.3/5 | Value for Money:4.1/5 | Food:3.9/5,,,,,,,,,,,,,,,,,,,
Rewa,India,24.5488,81.2987,Hotel Star,Hotel,,,Location:4/5 | Hospitality:5/5 | Facilities:4/5 | Cleanliness:5/5 | Value for Money:5/5 | Food:5/5,,,,,,,,,,,,,,,,,,,
LonavalaAndKhandala,India,18.763955,73.368474,Zara's Resort,Hotel,,,Location:4.4/5 | Hospitality:4/5 | Facilities:3.8/5 | Cleanliness:4.2/5 | Value for Money:4/5 | Food:3.7/5,,,,,,,,,,,,,,,,,,,
Vapi,India,20.391321,72.912292,Hotel Woodlands,Hotel,,,Location:3.9/5 | Hospitality:4.1/5 | Facilities:3.7/5 | Cleanliness:4/5 | Value for Money:3.9/5 | Food:4.2/5,,,,,,,,,,,,,,,,,,,
Beawar,India,0,0,Hotel Shree,Hotel,,,,,,,,,,,,,,,,,,,,,,
Cochin,India,0,0,Hotel Hilda Nedumkandam,Hotel,,,,,,,,,,,,,,,,,,,,,,
Jammu,India,32.729729,74.861935,Hotel Green Palace,Hotel,,,,,,,,,,,,,,,,,,,,,,
Bangalore,India,12.982882,77.594602,Hotel Paraag,Hotel,,,Location:4.4/5 | Hospitality:4/5 | Facilities:3.8/5 | Cleanliness:4/5 | Value for Money:4/5 | Food:3.6/5,,,,,,,,,,,,,,,,,,,
Wardha,India,0,0,Centre Point,Hotel,,,,,,,,,,,,,,,,,,,,,,
Bangalore,India,12.9707,77.6007,Treebo Edge,Hotel,,,Location:4.7/5 | Hospitality:4/5 | Facilities:4.1/5 | Cleanliness:4.4/5 | Value for Money:4/5 | Food:4.1/5,,,,,,,,,,,,,,,,,,,
Cochin,India,0,0,Oyster Bay Homestay,Hotel,,,,,,,,,,,,,,,,,,,,,,
Cochin,India,9.966348,76.288664,Leela Krishna Inn,Hotel,,,,,,,,,,,,,,,,,,,,,,
Jammu,India,0,0,Hotel TRG,Hotel,,,,,,,,,,,,,,,,,,,,,,
Corbett,India,29.692825,79.431152,Parwati Wild Abode,Hotel,,,Location:4.5/5 | Hospitality:3.8/5 | Facilities:3.5/5 | Cleanliness:4/5 | Value for Money:3.8/5 | Food:3.1/5,,,,,,,,,,,,,,,,,,,
Bhimtal,India,0,0,Lake Heritage,Hotel,,,,,,,,,,,,,,,,,,,,,,
Medinipur,India,22.4354,87.8958,Hotel Sonar Bangla Kolaghat,Hotel,,,Location:4.9/5 | Hospitality:4.9/5 | Facilities:4/5 | Cleanliness:5/5 | Value for Money:4.9/5 | Food:4/5,,,,,,,,,,,,,,,,,,,
Cochin,India,9.968546,76.245935,Rachels homestay,Hotel,,,,,,,,,,,,,,,,,,,,,,
Cochin,India,9.98795,76.2849,Mathaa tourist home,Hotel,,,,,,,,,,,,,,,,,,,,,,
Pali,India,0,0,Hotel Happy Home,Hotel,,,,,,,,,,,,,,,,,,,,,,
Cochin,India,0,0,Palace Gate Residency,Hotel,,,,,,,,,,,,,,,,,,,,,,
Shirdi,India,19.76779,74.484016,Hotel Maitreya,Hotel,,,Location:4.3/5 | Hospitality:3.5/5 | Facilities:3.3/5 | Cleanliness:3.7/5 | Value for Money:4/5 | Food:3/5,,,,,,,,,,,,,,,,,,,
Cochin,India,10.180588,76.397037,Sara Hotels and Apartments,Hotel,,,,,,,,,,,,,,,,,,,,,,
Cochin,India,9.96647,76.2448,Nena's Inn,Hotel,,,,,,,,,,,,,,,,,,,,,,
